country code,city,postal code,state name,state abbreviation,county,county number,community,community number,latitude,longitude,accuracy
US,Akutan,99553,Alaska,AK,Aleutians East,13,,,54.143,-165.7854,1
US,Cold Bay,99571,Alaska,AK,Aleutians East,13,,,55.1858,-162.7211,1
US,False Pass,99583,Alaska,AK,Aleutians East,13,,,54.8542,-163.4113,1
US,King Cove,99612,Alaska,AK,Aleutians East,13,,,55.0628,-162.3056,1
US,Sand Point,99661,Alaska,AK,Aleutians East,13,,,55.3192,-160.4914,1
US,Adak,99546,Alaska,AK,Aleutians West (CA),16,,,51.874,-176.634,1
US,Atka,99547,Alaska,AK,Aleutians West (CA),16,,,52.1961,-174.2006,1
US,Saint George Island,99591,Alaska,AK,Aleutians West (CA),16,,,56.5944,-169.6186,1
US,Nikolski,99638,Alaska,AK,Aleutians West (CA),16,,,52.9381,-168.8678,1
US,Saint Paul Island,99660,Alaska,AK,Aleutians West (CA),16,,,57.1842,-170.2764,1
US,Unalaska,99685,Alaska,AK,Aleutians West (CA),16,,,53.8871,-166.5199,1
US,Dutch Harbor,99692,Alaska,AK,Aleutians West (CA),16,,,53.8898,-166.5422,1
US,Anchorage,99501,Alaska,AK,Anchorage Municipality,20,,,61.2116,-149.8761,1
US,Anchorage,99502,Alaska,AK,Anchorage Municipality,20,,,61.1661,-149.96,1
US,Anchorage,99503,Alaska,AK,Anchorage Municipality,20,,,61.19,-149.8938,1
US,Anchorage,99504,Alaska,AK,Anchorage Municipality,20,,,61.2037,-149.7447,1
US,Jber,99505,Alaska,AK,Anchorage Municipality,20,,,59.8666,-158.5996,1
US,Jber,99506,Alaska,AK,Anchorage Municipality,20,,,59.8666,-158.5996,1
US,Anchorage,99507,Alaska,AK,Anchorage Municipality,20,,,61.1535,-149.8289,1
US,Anchorage,99508,Alaska,AK,Anchorage Municipality,20,,,61.206,-149.8101,1
US,Anchorage,99509,Alaska,AK,Anchorage Municipality,20,,,61.2181,-149.9003,1
US,Anchorage,99510,Alaska,AK,Anchorage Municipality,20,,,61.1446,-149.8784,1
US,Anchorage,99511,Alaska,AK,Anchorage Municipality,20,,,61.0683,-149.8005,1
US,Anchorage,99513,Alaska,AK,Anchorage Municipality,20,,,61.2149,-149.8862,1
US,Anchorage,99514,Alaska,AK,Anchorage Municipality,20,,,61.2181,-149.9003,1
US,Anchorage,99515,Alaska,AK,Anchorage Municipality,20,,,61.1194,-149.8974,1
US,Anchorage,99516,Alaska,AK,Anchorage Municipality,20,,,61.1054,-149.78,1
US,Anchorage,99517,Alaska,AK,Anchorage Municipality,20,,,61.1901,-149.9361,1
US,Anchorage,99518,Alaska,AK,Anchorage Municipality,20,,,61.1549,-149.8866,1
US,Anchorage,99519,Alaska,AK,Anchorage Municipality,20,,,61.1089,-149.4403,1
US,Anchorage,99520,Alaska,AK,Anchorage Municipality,20,,,61.2181,-149.9003,1
US,Anchorage,99521,Alaska,AK,Anchorage Municipality,20,,,61.2181,-149.9003,1
US,Anchorage,99522,Alaska,AK,Anchorage Municipality,20,,,61.2181,-149.9003,1
US,Anchorage,99523,Alaska,AK,Anchorage Municipality,20,,,61.2181,-149.9003,1
US,Anchorage,99524,Alaska,AK,Anchorage Municipality,20,,,61.2181,-149.9003,1
US,Anchorage,99529,Alaska,AK,Anchorage Municipality,20,,,61.1515,-149.9443,1
US,Anchorage,99530,Alaska,AK,Anchorage Municipality,20,,,61.1515,-149.9443,1
US,Indian,99540,Alaska,AK,Anchorage Municipality,20,,,61.1089,-149.4403,1
US,Chugiak,99567,Alaska,AK,Anchorage Municipality,20,,,61.4098,-149.4537,1
US,Eagle River,99577,Alaska,AK,Anchorage Municipality,20,,,61.3114,-149.5085,1
US,Girdwood,99587,Alaska,AK,Anchorage Municipality,20,,,60.9577,-149.1406,1
US,Anchorage,99599,Alaska,AK,Anchorage Municipality,20,,,61.1872,-149.8804,1
US,Anchorage,99695,Alaska,AK,Anchorage Municipality,20,,,61.1089,-149.4403,1
US,Kongiganak,99545,Alaska,AK,Bethel Census Area,50,,,59.9599,-162.8919,1
US,Akiachak,99551,Alaska,AK,Bethel Census Area,50,,,60.9094,-161.4314,4
US,Akiak,99552,Alaska,AK,Bethel Census Area,50,,,60.9122,-161.2139,4
US,Aniak,99557,Alaska,AK,Bethel Census Area,50,,,61.5783,-159.5222,4
US,Bethel,99559,Alaska,AK,Bethel Census Area,50,,,60.7922,-161.7558,4
US,Chefornak,99561,Alaska,AK,Bethel Census Area,50,,,60.1537,-164.2103,1
US,Crooked Creek,99575,Alaska,AK,Bethel Census Area,50,,,61.8181,-158.0025,1
US,Eek,99578,Alaska,AK,Bethel Census Area,50,,,60.2151,-162.0323,1
US,Goodnews Bay,99589,Alaska,AK,Bethel Census Area,50,,,59.1189,-161.5875,1
US,Kalskag,99607,Alaska,AK,Bethel Census Area,50,,,61.541,-160.3261,1
US,Kasigluk,99609,Alaska,AK,Bethel Census Area,50,,,60.8956,-162.5181,1
US,Kipnuk,99614,Alaska,AK,Bethel Census Area,50,,,59.9232,-164.101,1
US,Kwethluk,99621,Alaska,AK,Bethel Census Area,50,,,60.8122,-161.4358,4
US,Kwigillingok,99622,Alaska,AK,Bethel Census Area,50,,,59.8644,-163.1342,1
US,Lower Kalskag,99626,Alaska,AK,Bethel Census Area,50,,,61.5138,-160.36,1
US,Mekoryuk,99630,Alaska,AK,Bethel Census Area,50,,,60.3657,-166.2836,1
US,Napakiak,99634,Alaska,AK,Bethel Census Area,50,,,60.6967,-161.9519,1
US,Toksook Bay,99637,Alaska,AK,Bethel Census Area,50,,,60.5338,-165.1037,1
US,Nunapitchuk,99641,Alaska,AK,Bethel Census Area,50,,,60.8969,-162.4594,1
US,Platinum,99651,Alaska,AK,Bethel Census Area,50,,,59.0131,-161.8164,1
US,Quinhagak,99655,Alaska,AK,Bethel Census Area,50,,,59.7381,-161.8749,1
US,Red Devil,99656,Alaska,AK,Bethel Census Area,50,,,61.7611,-157.3125,1
US,Sleetmute,99668,Alaska,AK,Bethel Census Area,50,,,61.7025,-157.1697,1
US,Tuluksak,99679,Alaska,AK,Bethel Census Area,50,,,61.1088,-160.9389,4
US,Tuntutuliak,99680,Alaska,AK,Bethel Census Area,50,,,60.3431,-162.6631,4
US,Tununak,99681,Alaska,AK,Bethel Census Area,50,,,60.5856,-165.2558,1
US,Nightmute,99690,Alaska,AK,Bethel Census Area,50,,,60.4794,-164.7239,1
US,King Salmon,99613,Alaska,AK,Bristol Bay,60,,,58.6883,-156.6614,1
US,Naknek,99633,Alaska,AK,Bristol Bay,60,,,58.783,-156.8992,1
US,South Naknek,99670,Alaska,AK,Bristol Bay,60,,,58.6639,-156.9756,1
US,Clear,99704,Alaska,AK,Denali,68,,,64.2966,-149.1608,4
US,Cantwell,99729,Alaska,AK,Denali,68,,,63.3955,-148.8973,1
US,Healy,99743,Alaska,AK,Denali,68,,,63.9171,-149.0111,4
US,Anderson,99744,Alaska,AK,Denali,68,,,64.3442,-149.1869,4
US,Denali National Park,99755,Alaska,AK,Denali,68,,,63.5436,-149.9867,4
US,Aleknagik,99555,Alaska,AK,Dillingham (CA),70,,,59.2697,-158.6199,1
US,Clarks Point,99569,Alaska,AK,Dillingham (CA),70,,,58.8173,-158.5299,1
US,Dillingham,99576,Alaska,AK,Dillingham (CA),70,,,59.0402,-158.5231,1
US,Ekwok,99580,Alaska,AK,Dillingham (CA),70,,,59.3628,-157.4782,4
US,Manokotak,99628,Alaska,AK,Dillingham (CA),70,,,59.0096,-158.9897,1
US,New Stuyahok,99636,Alaska,AK,Dillingham (CA),70,,,59.4882,-157.2905,1
US,Togiak,99678,Alaska,AK,Dillingham (CA),70,,,59.0619,-160.3764,1
US,Fairbanks,99701,Alaska,AK,Fairbanks North Star,90,,,64.8378,-147.7164,4
US,Eielson Afb,99702,Alaska,AK,Fairbanks North Star,90,,,64.6735,-147.0805,1
US,Fort Wainwright,99703,Alaska,AK,Fairbanks North Star,90,,,64.8283,-147.6557,1
US,North Pole,99705,Alaska,AK,Fairbanks North Star,90,,,64.7805,-147.3694,4
US,Fairbanks,99706,Alaska,AK,Fairbanks North Star,90,,,64.8521,-147.9377,4
US,Fairbanks,99707,Alaska,AK,Fairbanks North Star,90,,,64.8378,-147.7164,4
US,Fairbanks,99708,Alaska,AK,Fairbanks North Star,90,,,64.9475,-147.8564,4
US,Fairbanks,99709,Alaska,AK,Fairbanks North Star,90,,,64.8544,-147.8469,4
US,Fairbanks,99710,Alaska,AK,Fairbanks North Star,90,,,64.8378,-147.7164,4
US,Fairbanks,99711,Alaska,AK,Fairbanks North Star,90,,,64.8378,-147.7164,4
US,Fairbanks,99712,Alaska,AK,Fairbanks North Star,90,,,64.9109,-147.5105,4
US,Salcha,99714,Alaska,AK,Fairbanks North Star,90,,,64.5091,-146.953,1
US,Two Rivers,99716,Alaska,AK,Fairbanks North Star,90,,,64.8746,-146.8982,4
US,Ester,99725,Alaska,AK,Fairbanks North Star,90,,,64.871,-148.0949,4
US,Fairbanks,99775,Alaska,AK,Fairbanks North Star,90,,,64.8591,-147.8267,4
US,Fairbanks,99790,Alaska,AK,Fairbanks North Star,90,,,64.8378,-147.7164,1
US,Haines,99827,Alaska,AK,Haines,100,,,59.2519,-135.542,4
US,Juneau,99801,Alaska,AK,Juneau City and Borough,110,,,58.3628,-134.5294,4
US,Juneau,99802,Alaska,AK,Juneau City and Borough,110,,,58.3019,-134.4197,4
US,Juneau,99803,Alaska,AK,Juneau City and Borough,110,,,58.3019,-134.4197,4
US,Juneau,99811,Alaska,AK,Juneau City and Borough,110,,,58.3019,-134.4197,4
US,Juneau,99812,Alaska,AK,Juneau City and Borough,110,,,58.3271,-134.4742,4
US,Auke Bay,99821,Alaska,AK,Juneau City and Borough,110,,,58.4494,-134.7003,4
US,Douglas,99824,Alaska,AK,Juneau City and Borough,110,,,58.2756,-134.395,4
US,Juneau,99850,Alaska,AK,Juneau City and Borough,110,,,58.3019,-134.4197,4
US,Anchor Point,99556,Alaska,AK,Kenai Peninsula,122,,,59.8371,-151.7078,1
US,Clam Gulch,99568,Alaska,AK,Kenai Peninsula,122,,,60.2311,-151.3936,4
US,Cooper Landing,99572,Alaska,AK,Kenai Peninsula,122,,,60.4767,-149.8235,1
US,Homer,99603,Alaska,AK,Kenai Peninsula,122,,,59.5374,-151.2356,1
US,Hope,99605,Alaska,AK,Kenai Peninsula,122,,,60.8726,-149.4683,1
US,Kasilof,99610,Alaska,AK,Kenai Peninsula,122,,,60.3164,-151.2896,4
US,Kenai,99611,Alaska,AK,Kenai Peninsula,122,,,60.6145,-151.2546,4
US,Moose Pass,99631,Alaska,AK,Kenai Peninsula,122,,,60.6148,-149.4056,1
US,Nikiski,99635,Alaska,AK,Kenai Peninsula,122,,,60.7007,-151.2766,1
US,Ninilchik,99639,Alaska,AK,Kenai Peninsula,122,,,60.0108,-151.6396,1
US,Seldovia,99663,Alaska,AK,Kenai Peninsula,122,,,59.4495,-151.7009,4
US,Seward,99664,Alaska,AK,Kenai Peninsula,122,,,60.1329,-149.3985,1
US,Soldotna,99669,Alaska,AK,Kenai Peninsula,122,,,60.4818,-151.1358,1
US,Sterling,99672,Alaska,AK,Kenai Peninsula,122,,,60.5136,-150.8532,4
US,Tyonek,99682,Alaska,AK,Kenai Peninsula,122,,,61.0681,-151.1369,4
US,Ketchikan,99901,Alaska,AK,Ketchikan Gateway,130,,,55.372,-131.6832,4
US,Ward Cove,99928,Alaska,AK,Ketchikan Gateway,130,,,55.3954,-131.6754,4
US,Ketchikan,99950,Alaska,AK,Ketchikan Gateway,130,,,55.3422,-131.6478,4
US,Port Lions,99550,Alaska,AK,Kodiak Island,150,,,57.8675,-152.8822,1
US,Karluk,99608,Alaska,AK,Kodiak Island,150,,,57.5689,-154.4551,1
US,Kodiak,99615,Alaska,AK,Kodiak Island,150,,,57.6036,-153.3751,1
US,Kodiak,99619,Alaska,AK,Kodiak Island,150,,,57.79,-152.4072,1
US,Larsen Bay,99624,Alaska,AK,Kodiak Island,150,,,57.54,-153.9786,1
US,Old Harbor,99643,Alaska,AK,Kodiak Island,150,,,57.2028,-153.3039,1
US,Ouzinkie,99644,Alaska,AK,Kodiak Island,150,,,57.9236,-152.5022,4
US,Kodiak,99697,Alaska,AK,Kodiak Island,150,,,57.79,-152.4072,1
US,Alakanuk,99554,Alaska,AK,Kusilvak,158,,,62.6944,-164.6475,1
US,Chevak,99563,Alaska,AK,Kusilvak,158,,,61.529,-165.5905,1
US,Emmonak,99581,Alaska,AK,Kusilvak,158,,,62.7818,-164.5335,1
US,Marshall,99585,Alaska,AK,Kusilvak,158,,,61.9287,-162.268,1
US,Hooper Bay,99604,Alaska,AK,Kusilvak,158,,,61.527,-166.1151,1
US,Kotlik,99620,Alaska,AK,Kusilvak,158,,,63.0295,-163.5542,1
US,Mountain Village,99632,Alaska,AK,Kusilvak,158,,,62.1123,-163.6644,1
US,Pilot Station,99650,Alaska,AK,Kusilvak,158,,,61.9462,-162.8747,1
US,Russian Mission,99657,Alaska,AK,Kusilvak,158,,,61.7744,-161.3939,4
US,Saint Marys,99658,Alaska,AK,Kusilvak,158,,,62.1172,-163.2376,1
US,Scammon Bay,99662,Alaska,AK,Kusilvak,158,,,61.845,-165.5819,1
US,Nunam Iqua,99666,Alaska,AK,Kusilvak,158,,,62.5309,-164.8496,1
US,Chignik Lake,99548,Alaska,AK,Lake and Peninsula,164,,,56.2448,-158.7578,1
US,Port Heiden,99549,Alaska,AK,Lake and Peninsula,164,,,56.9643,-158.5664,4
US,Chignik,99564,Alaska,AK,Lake and Peninsula,164,,,56.3016,-158.4157,1
US,Chignik Lagoon,99565,Alaska,AK,Lake and Peninsula,164,,,58.2687,-156.6484,1
US,Egegik,99579,Alaska,AK,Lake and Peninsula,164,,,58.2062,-157.3422,4
US,Iliamna,99606,Alaska,AK,Lake and Peninsula,164,,,59.7525,-154.8236,1
US,Levelock,99625,Alaska,AK,Lake and Peninsula,164,,,59.2905,-156.6503,1
US,Nondalton,99640,Alaska,AK,Lake and Peninsula,164,,,59.9736,-154.8458,1
US,Pedro Bay,99647,Alaska,AK,Lake and Peninsula,164,,,59.8681,-154.0757,1
US,Perryville,99648,Alaska,AK,Lake and Peninsula,164,,,55.9453,-159.2593,1
US,Pilot Point,99649,Alaska,AK,Lake and Peninsula,164,,,57.5642,-157.5792,1
US,Port Alsworth,99653,Alaska,AK,Lake and Peninsula,164,,,60.2025,-154.3128,1
US,Wasilla,99623,Alaska,AK,Matanuska-Susitna Borough,170,,,61.5463,-149.5901,1
US,Wasilla,99629,Alaska,AK,Matanuska-Susitna Borough,170,,,61.5841,-149.4436,1
US,Palmer,99645,Alaska,AK,Matanuska-Susitna Borough,170,,,61.6303,-148.9872,1
US,Big Lake,99652,Alaska,AK,Matanuska-Susitna Borough,170,,,61.5214,-149.9544,1
US,Wasilla,99654,Alaska,AK,Matanuska-Susitna Borough,170,,,61.5923,-149.3959,1
US,Skwentna,99667,Alaska,AK,Matanuska-Susitna Borough,170,,,61.9903,-151.3978,1
US,Sutton,99674,Alaska,AK,Matanuska-Susitna Borough,170,,,61.7327,-148.7837,1
US,Talkeetna,99676,Alaska,AK,Matanuska-Susitna Borough,170,,,62.2605,-150.1101,1
US,Trapper Creek,99683,Alaska,AK,Matanuska-Susitna Borough,170,,,62.3167,-150.2314,1
US,Wasilla,99687,Alaska,AK,Matanuska-Susitna Borough,170,,,61.5313,-149.4784,1
US,Willow,99688,Alaska,AK,Matanuska-Susitna Borough,170,,,61.8966,-150.0038,1
US,Houston,99694,Alaska,AK,Matanuska-Susitna Borough,170,,,61.6303,-149.8181,1
US,Saint Michael,99659,Alaska,AK,Nome (CA),180,,,63.4776,-162.1091,1
US,Stebbins,99671,Alaska,AK,Nome (CA),180,,,63.5222,-162.2881,1
US,Unalakleet,99684,Alaska,AK,Nome (CA),180,,,63.8835,-160.7884,1
US,Elim,99739,Alaska,AK,Nome (CA),180,,,64.6217,-162.2604,1
US,Gambell,99742,Alaska,AK,Nome (CA),180,,,63.7766,-171.7017,1
US,Koyuk,99753,Alaska,AK,Nome (CA),180,,,64.9319,-161.1569,4
US,Nome,99762,Alaska,AK,Nome (CA),180,,,64.5011,-165.4064,1
US,Savoonga,99769,Alaska,AK,Nome (CA),180,,,63.6797,-170.4709,1
US,Shaktoolik,99771,Alaska,AK,Nome (CA),180,,,64.3537,-161.1932,1
US,Shishmaref,99772,Alaska,AK,Nome (CA),180,,,66.2306,-166.1373,1
US,Teller,99778,Alaska,AK,Nome (CA),180,,,65.2402,-166.3833,1
US,Wales,99783,Alaska,AK,Nome (CA),180,,,65.6092,-168.0875,1
US,White Mountain,99784,Alaska,AK,Nome (CA),180,,,64.6814,-163.4056,1
US,Brevig Mission,99785,Alaska,AK,Nome (CA),180,,,65.3342,-166.4786,1
US,Anaktuvuk Pass,99721,Alaska,AK,North Slope,185,,,68.1433,-151.7358,1
US,Barrow,99723,Alaska,AK,North Slope,185,,,71.2346,-156.8174,1
US,Prudhoe Bay,99734,Alaska,AK,North Slope,185,,,70.2922,-148.6694,1
US,Kaktovik,99747,Alaska,AK,North Slope,185,,,70.1319,-143.6239,1
US,Point Lay,99759,Alaska,AK,North Slope,185,,,69.7439,-163.0084,1
US,Point Hope,99766,Alaska,AK,North Slope,185,,,68.3486,-166.7347,1
US,Wainwright,99782,Alaska,AK,North Slope,185,,,70.6369,-160.0383,1
US,Nuiqsut,99789,Alaska,AK,North Slope,185,,,70.1927,-150.9971,1
US,Atqasuk,99791,Alaska,AK,North Slope,185,,,70.4947,-157.4411,1
US,Buckland,99727,Alaska,AK,Northwest Arctic,188,,,65.9789,-161.1262,1
US,Deering,99736,Alaska,AK,Northwest Arctic,188,,,66.0737,-162.714,1
US,Kiana,99749,Alaska,AK,Northwest Arctic,188,,,66.975,-160.4228,1
US,Kivalina,99750,Alaska,AK,Northwest Arctic,188,,,67.7269,-164.5333,1
US,Kobuk,99751,Alaska,AK,Northwest Arctic,188,,,66.9072,-156.8811,1
US,Kotzebue,99752,Alaska,AK,Northwest Arctic,188,,,66.8985,-162.5981,1
US,Noatak,99761,Alaska,AK,Northwest Arctic,188,,,67.5711,-162.9653,1
US,Noorvik,99763,Alaska,AK,Northwest Arctic,188,,,66.8364,-161.0441,1
US,Selawik,99770,Alaska,AK,Northwest Arctic,188,,,66.6039,-160.0069,1
US,Shungnak,99773,Alaska,AK,Northwest Arctic,188,,,66.8881,-157.1364,1
US,Ambler,99786,Alaska,AK,Northwest Arctic,188,,,67.0861,-157.8514,1
US,Meyers Chuck,99903,Alaska,AK,Prince of Wales-Hyder,198,,,55.7408,-132.2564,4
US,Coffman Cove,99918,Alaska,AK,Prince of Wales-Hyder,198,,,55.9524,-132.7503,4
US,Thorne Bay,99919,Alaska,AK,Prince of Wales-Hyder,198,,,55.6609,-132.5138,4
US,Craig,99921,Alaska,AK,Prince of Wales-Hyder,198,,,55.4732,-133.1171,4
US,Hydaburg,99922,Alaska,AK,Prince of Wales-Hyder,198,,,55.2087,-132.8259,4
US,Hyder,99923,Alaska,AK,Prince of Wales-Hyder,198,,,55.9169,-130.0247,1
US,Klawock,99925,Alaska,AK,Prince of Wales-Hyder,198,,,55.5526,-133.0555,4
US,Metlakatla,99926,Alaska,AK,Prince of Wales-Hyder,198,,,55.1215,-131.579,4
US,Point Baker,99927,Alaska,AK,Prince of Wales-Hyder,198,,,56.3528,-133.6211,4
US,Sitka,99835,Alaska,AK,Sitka City and Borough,220,,,57.0514,-135.3166,4
US,Yakutat,99689,Alaska,AK,Skagway-Hoonah-Angoon,232,,,59.812,-139.5505,1
US,Angoon,99820,Alaska,AK,Skagway-Hoonah-Angoon,232,,,57.5005,-134.586,4
US,Elfin Cove,99825,Alaska,AK,Skagway-Hoonah-Angoon,232,,,58.1944,-136.3433,4
US,Gustavus,99826,Alaska,AK,Skagway-Hoonah-Angoon,232,,,58.4284,-135.7615,4
US,Hoonah,99829,Alaska,AK,Skagway-Hoonah-Angoon,232,,,58.0977,-135.4316,4
US,Pelican,99832,Alaska,AK,Skagway-Hoonah-Angoon,232,,,57.9608,-136.2275,4
US,Skagway,99840,Alaska,AK,Skagway-Hoonah-Angoon,232,,,59.4685,-135.3018,1
US,Tenakee Springs,99841,Alaska,AK,Skagway-Hoonah-Angoon,232,,,57.7808,-135.2189,4
US,Fort Greely,99731,Alaska,AK,Southeast Fairbanks Census Area,240,,,63.952,-146.451,1
US,Chicken,99732,Alaska,AK,Southeast Fairbanks Census Area,240,,,64.0733,-141.9361,1
US,Delta Junction,99737,Alaska,AK,Southeast Fairbanks Census Area,240,,,64.0378,-145.7322,1
US,Eagle,99738,Alaska,AK,Southeast Fairbanks Census Area,240,,,64.7881,-141.2,1
US,Northway,99764,Alaska,AK,Southeast Fairbanks Census Area,240,,,62.9617,-141.9372,1
US,Tanacross,99776,Alaska,AK,Southeast Fairbanks Census Area,240,,,63.3853,-143.3464,1
US,Tok,99780,Alaska,AK,Southeast Fairbanks Census Area,240,,,63.3367,-142.9856,1
US,Chitina,99566,Alaska,AK,Valdez-Cordova (CA),261,,,61.5156,-144.4396,1
US,Copper Center,99573,Alaska,AK,Valdez-Cordova (CA),261,,,61.977,-145.3297,1
US,Cordova,99574,Alaska,AK,Valdez-Cordova (CA),261,,,60.5362,-145.7534,1
US,Gakona,99586,Alaska,AK,Valdez-Cordova (CA),261,,,62.3014,-145.3027,1
US,Glennallen,99588,Alaska,AK,Valdez-Cordova (CA),261,,,62.1039,-145.6617,1
US,Tatitlek,99677,Alaska,AK,Valdez-Cordova (CA),261,,,60.8906,-146.6703,1
US,Valdez,99686,Alaska,AK,Valdez-Cordova (CA),261,,,61.101,-146.9,1
US,Whittier,99693,Alaska,AK,Valdez-Cordova (CA),261,,,60.7734,-148.6839,1
US,Kake,99830,Alaska,AK,Wrangell-Petersburg (C,280,,,56.9736,-133.936,4
US,Petersburg,99833,Alaska,AK,Wrangell-Petersburg (C,280,,,56.8271,-133.1607,4
US,Port Alexander,99836,Alaska,AK,Wrangell-Petersburg (C,280,,,56.2497,-134.6444,4
US,Wrangell,99929,Alaska,AK,Wrangell-Petersburg (C,280,,,56.4335,-132.3529,4
US,Anvik,99558,Alaska,AK,Yukon-Koyukuk (CA),290,,,62.6561,-160.2067,1
US,Grayling,99590,Alaska,AK,Yukon-Koyukuk (CA),290,,,62.9036,-160.0647,1
US,Holy Cross,99602,Alaska,AK,Yukon-Koyukuk (CA),290,,,62.1926,-159.8251,1
US,Mc Grath,99627,Alaska,AK,Yukon-Koyukuk (CA),290,,,62.9457,-155.5712,1
US,Shageluk,99665,Alaska,AK,Yukon-Koyukuk (CA),290,,,62.6822,-159.5619,1
US,Takotna,99675,Alaska,AK,Yukon-Koyukuk (CA),290,,,62.9886,-156.0642,1
US,Nikolai,99691,Alaska,AK,Yukon-Koyukuk (CA),290,,,63.0133,-154.375,1
US,Allakaket,99720,Alaska,AK,Yukon-Koyukuk (CA),290,,,66.5656,-152.6456,1
US,Arctic Village,99722,Alaska,AK,Yukon-Koyukuk (CA),290,,,68.1269,-145.5378,1
US,Beaver,99724,Alaska,AK,Yukon-Koyukuk (CA),290,,,66.3594,-147.3964,4
US,Bettles Field,99726,Alaska,AK,Yukon-Koyukuk (CA),290,,,65.2264,-151.0251,1
US,Central,99730,Alaska,AK,Yukon-Koyukuk (CA),290,,,65.4681,-144.7489,1
US,Circle,99733,Alaska,AK,Yukon-Koyukuk (CA),290,,,65.8245,-144.0826,1
US,Fort Yukon,99740,Alaska,AK,Yukon-Koyukuk (CA),290,,,66.5647,-145.2739,1
US,Galena,99741,Alaska,AK,Yukon-Koyukuk (CA),290,,,64.7333,-156.9275,1
US,Hughes,99745,Alaska,AK,Yukon-Koyukuk (CA),290,,,66.0382,-154.2644,4
US,Huslia,99746,Alaska,AK,Yukon-Koyukuk (CA),290,,,65.6899,-156.292,4
US,Kaltag,99748,Alaska,AK,Yukon-Koyukuk (CA),290,,,64.3305,-158.7243,1
US,Koyukuk,99754,Alaska,AK,Yukon-Koyukuk (CA),290,,,64.8803,-157.7008,4
US,Manley Hot Springs,99756,Alaska,AK,Yukon-Koyukuk (CA),290,,,65.0011,-150.6339,4
US,Lake Minchumina,99757,Alaska,AK,Yukon-Koyukuk (CA),290,,,63.8828,-152.3122,4
US,Minto,99758,Alaska,AK,Yukon-Koyukuk (CA),290,,,65.0584,-149.6912,1
US,Nenana,99760,Alaska,AK,Yukon-Koyukuk (CA),290,,,64.5577,-149.0867,1
US,Nulato,99765,Alaska,AK,Yukon-Koyukuk (CA),290,,,64.7194,-158.1031,1
US,Rampart,99767,Alaska,AK,Yukon-Koyukuk (CA),290,,,65.509,-150.1619,1
US,Ruby,99768,Alaska,AK,Yukon-Koyukuk (CA),290,,,64.7201,-155.5039,1
US,Stevens Village,99774,Alaska,AK,Yukon-Koyukuk (CA),290,,,66.0064,-149.0908,4
US,Tanana,99777,Alaska,AK,Yukon-Koyukuk (CA),290,,,65.1719,-152.0789,1
US,Venetie,99781,Alaska,AK,Yukon-Koyukuk (CA),290,,,67.0104,-146.4137,1
US,Chalkyitsik,99788,Alaska,AK,Yukon-Koyukuk (CA),290,,,66.6544,-143.7222,1
US,Autaugaville,36003,Alabama,AL,Autauga,1,,,32.4625,-86.7149,4
US,Billingsley,36006,Alabama,AL,Autauga,1,,,32.6596,-86.7178,4
US,Booth,36008,Alabama,AL,Autauga,1,,,32.5016,-86.5727,4
US,Marbury,36051,Alabama,AL,Autauga,1,,,32.6841,-86.4946,4
US,Prattville,36066,Alabama,AL,Autauga,1,,,32.4787,-86.43,4
US,Prattville,36067,Alabama,AL,Autauga,1,,,32.4715,-86.4831,4
US,Prattville,36068,Alabama,AL,Autauga,1,,,32.464,-86.4597,4
US,Jones,36749,Alabama,AL,Autauga,1,,,32.5104,-86.8138,4
US,Bay Minette,36507,Alabama,AL,Baldwin,3,,,30.8635,-87.7644,4
US,Bon Secour,36511,Alabama,AL,Baldwin,3,,,30.3128,-87.7431,4
US,Daphne,36526,Alabama,AL,Baldwin,3,,,30.6197,-87.8895,4
US,Spanish Fort,36527,Alabama,AL,Baldwin,3,,,30.6959,-87.8867,4
US,Elberta,36530,Alabama,AL,Baldwin,3,,,30.3942,-87.589,4
US,Fairhope,36532,Alabama,AL,Baldwin,3,,,30.5012,-87.8835,4
US,Fairhope,36533,Alabama,AL,Baldwin,3,,,30.4841,-87.8606,4
US,Foley,36535,Alabama,AL,Baldwin,3,,,30.4007,-87.6857,4
US,Foley,36536,Alabama,AL,Baldwin,3,,,30.4222,-87.7064,4
US,Gulf Shores,36542,Alabama,AL,Baldwin,3,,,30.2717,-87.7589,4
US,Gulf Shores,36547,Alabama,AL,Baldwin,3,,,30.246,-87.7008,4
US,Lillian,36549,Alabama,AL,Baldwin,3,,,30.3972,-87.4745,4
US,Little River,36550,Alabama,AL,Baldwin,3,,,31.2246,-87.7548,4
US,Loxley,36551,Alabama,AL,Baldwin,3,,,30.618,-87.7562,4
US,Magnolia Springs,36555,Alabama,AL,Baldwin,3,,,30.3996,-87.7761,4
US,Montrose,36559,Alabama,AL,Baldwin,3,,,30.5623,-87.9005,4
US,Orange Beach,36561,Alabama,AL,Baldwin,3,,,30.281,-87.5815,4
US,Perdido,36562,Alabama,AL,Baldwin,3,,,31.0403,-87.6667,4
US,Point Clear,36564,Alabama,AL,Baldwin,3,,,30.4741,-87.9192,4
US,Robertsdale,36567,Alabama,AL,Baldwin,3,,,30.5616,-87.6373,4
US,Seminole,36574,Alabama,AL,Baldwin,3,,,30.5048,-87.4659,4
US,Silverhill,36576,Alabama,AL,Baldwin,3,,,30.5222,-87.7457,4
US,Spanish Fort,36577,Alabama,AL,Baldwin,3,,,30.6749,-87.9153,4
US,Stapleton,36578,Alabama,AL,Baldwin,3,,,30.7476,-87.7787,4
US,Stockton,36579,Alabama,AL,Baldwin,3,,,31.0129,-87.8633,4
US,Summerdale,36580,Alabama,AL,Baldwin,3,,,30.4752,-87.6992,4
US,Clayton,36016,Alabama,AL,Barbour,5,,,31.8874,-85.4509,4
US,Clio,36017,Alabama,AL,Barbour,5,,,31.6852,-85.5904,4
US,Eufaula,36027,Alabama,AL,Barbour,5,,,31.9051,-85.1656,4
US,Louisville,36048,Alabama,AL,Barbour,5,,,31.7943,-85.5581,4
US,Eufaula,36072,Alabama,AL,Barbour,5,,,31.8913,-85.1455,4
US,Brent,35034,Alabama,AL,Bibb,7,,,32.9357,-87.2114,4
US,Brierfield,35035,Alabama,AL,Bibb,7,,,33.0427,-86.9517,4
US,Centreville,35042,Alabama,AL,Bibb,7,,,32.9503,-87.1192,4
US,Green Pond,35074,Alabama,AL,Bibb,7,,,33.2251,-87.1264,4
US,West Blocton,35184,Alabama,AL,Bibb,7,,,33.1424,-87.1369,4
US,Woodstock,35188,Alabama,AL,Bibb,7,,,33.2068,-87.15,4
US,Randolph,36792,Alabama,AL,Bibb,7,,,32.8888,-86.907,4
US,Lawley,36793,Alabama,AL,Bibb,7,,,32.8646,-86.9567,4
US,Allgood,35013,Alabama,AL,Blount,9,,,33.9222,-86.4493,4
US,Blountsville,35031,Alabama,AL,Blount,9,,,34.0929,-86.5686,4
US,Cleveland,35049,Alabama,AL,Blount,9,,,33.9778,-86.5598,4
US,Hayden,35079,Alabama,AL,Blount,9,,,33.9534,-86.7455,4
US,Locust Fork,35097,Alabama,AL,Blount,9,,,33.905,-86.6261,4
US,Oneonta,35121,Alabama,AL,Blount,9,,,33.9259,-86.4741,4
US,Remlap,35133,Alabama,AL,Blount,9,,,33.8168,-86.6008,4
US,Fitzpatrick,36029,Alabama,AL,Bullock,11,,,32.2165,-85.8888,4
US,Midway,36053,Alabama,AL,Bullock,11,,,32.0955,-85.5315,4
US,Perote,36061,Alabama,AL,Bullock,11,,,32.0928,-85.7046,4
US,Union Springs,36089,Alabama,AL,Bullock,11,,,32.1443,-85.7149,4
US,Chapman,36015,Alabama,AL,Butler,13,,,31.6427,-86.7343,4
US,Forest Home,36030,Alabama,AL,Butler,13,,,31.8501,-86.8372,4
US,Georgiana,36033,Alabama,AL,Butler,13,,,31.6287,-86.734,4
US,Greenville,36037,Alabama,AL,Butler,13,,,31.81,-86.6229,4
US,Mc Kenzie,36456,Alabama,AL,Butler,13,,,31.545,-86.7356,1
US,Anniston,36201,Alabama,AL,Calhoun,15,,,33.6539,-85.8382,4
US,Anniston,36202,Alabama,AL,Calhoun,15,,,33.7622,-85.8378,4
US,Oxford,36203,Alabama,AL,Calhoun,15,,,33.5815,-85.8328,4
US,Anniston,36204,Alabama,AL,Calhoun,15,,,33.7622,-85.8378,4
US,Anniston,36205,Alabama,AL,Calhoun,15,,,33.7358,-85.7933,4
US,Anniston,36206,Alabama,AL,Calhoun,15,,,33.7191,-85.8389,4
US,Anniston,36207,Alabama,AL,Calhoun,15,,,33.6803,-85.7137,4
US,Alexandria,36250,Alabama,AL,Calhoun,15,,,33.7808,-85.8924,4
US,Bynum,36253,Alabama,AL,Calhoun,15,,,33.7622,-85.8378,4
US,Choccolocco,36254,Alabama,AL,Calhoun,15,,,33.6573,-85.6991,4
US,De Armanville,36257,Alabama,AL,Calhoun,15,,,33.7622,-85.8378,1
US,Eastaboga,36260,Alabama,AL,Calhoun,15,,,33.6031,-85.9608,4
US,Jacksonville,36265,Alabama,AL,Calhoun,15,,,33.831,-85.7752,4
US,Ohatchee,36271,Alabama,AL,Calhoun,15,,,33.7788,-86.0254,4
US,Piedmont,36272,Alabama,AL,Calhoun,15,,,33.8389,-85.646,4
US,Weaver,36277,Alabama,AL,Calhoun,15,,,33.7563,-85.8107,4
US,Wellington,36279,Alabama,AL,Calhoun,15,,,33.8226,-85.8927,4
US,Cusseta,36852,Alabama,AL,Chambers,17,,,32.7831,-85.2756,4
US,Valley,36854,Alabama,AL,Chambers,17,,,32.8113,-85.1749,4
US,Five Points,36855,Alabama,AL,Chambers,17,,,33.0424,-85.3243,4
US,Lafayette,36862,Alabama,AL,Chambers,17,,,32.9252,-85.4426,4
US,Lanett,36863,Alabama,AL,Chambers,17,,,32.8616,-85.2161,4
US,Cedar Bluff,35959,Alabama,AL,Cherokee,19,,,34.2417,-85.6026,4
US,Centre,35960,Alabama,AL,Cherokee,19,,,34.1116,-85.6092,4
US,Gaylesville,35973,Alabama,AL,Cherokee,19,,,34.3573,-85.5589,4
US,Leesburg,35983,Alabama,AL,Cherokee,19,,,34.1911,-85.7705,4
US,Spring Garden,36275,Alabama,AL,Cherokee,19,,,33.9778,-85.5521,4
US,Clanton,35045,Alabama,AL,Chilton,21,,,32.8355,-86.6425,4
US,Clanton,35046,Alabama,AL,Chilton,21,,,32.9229,-86.545,4
US,Jemison,35085,Alabama,AL,Chilton,21,,,32.9805,-86.7181,4
US,Thorsby,35171,Alabama,AL,Chilton,21,,,32.9157,-86.7158,4
US,Verbena,36091,Alabama,AL,Chilton,21,,,32.7499,-86.5114,4
US,Maplesville,36750,Alabama,AL,Chilton,21,,,32.8045,-86.8717,4
US,Stanton,36790,Alabama,AL,Chilton,21,,,32.7332,-86.8963,4
US,Butler,36904,Alabama,AL,Choctaw,23,,,32.0829,-88.2064,4
US,Gilbertown,36908,Alabama,AL,Choctaw,23,,,31.8666,-88.3265,4
US,Jachin,36910,Alabama,AL,Choctaw,23,,,32.2299,-88.1684,4
US,Lisman,36912,Alabama,AL,Choctaw,23,,,32.2177,-88.3234,4
US,Melvin,36913,Alabama,AL,Choctaw,23,,,31.9304,-88.4589,4
US,Needham,36915,Alabama,AL,Choctaw,23,,,31.9879,-88.3367,4
US,Pennington,36916,Alabama,AL,Choctaw,23,,,32.2094,-88.049,4
US,Silas,36919,Alabama,AL,Choctaw,23,,,31.7668,-88.3091,4
US,Toxey,36921,Alabama,AL,Choctaw,23,,,31.9155,-88.151,4
US,Ward,36922,Alabama,AL,Choctaw,23,,,32.3038,-88.1476,4
US,Dickinson,36436,Alabama,AL,Clarke,25,,,31.7635,-87.7106,4
US,Fulton,36446,Alabama,AL,Clarke,25,,,31.7925,-87.72,4
US,Grove Hill,36451,Alabama,AL,Clarke,25,,,31.7088,-87.7772,4
US,Whatley,36482,Alabama,AL,Clarke,25,,,31.6395,-87.6565,4
US,Coffeeville,36524,Alabama,AL,Clarke,25,,,31.7843,-88.0715,4
US,Gainestown,36540,Alabama,AL,Clarke,25,,,31.4258,-87.6822,4
US,Jackson,36545,Alabama,AL,Clarke,25,,,31.5131,-87.8672,4
US,Campbell,36727,Alabama,AL,Clarke,25,,,31.9213,-88.008,4
US,Thomasville,36784,Alabama,AL,Clarke,25,,,31.9067,-87.7598,4
US,Hollins,35082,Alabama,AL,Clay,27,,,33.1162,-86.1386,4
US,Ashland,36251,Alabama,AL,Clay,27,,,33.2474,-85.829,4
US,Cragford,36255,Alabama,AL,Clay,27,,,33.2171,-85.7108,4
US,Delta,36258,Alabama,AL,Clay,27,,,33.4573,-85.6793,4
US,Lineville,36266,Alabama,AL,Clay,27,,,33.3286,-85.7346,4
US,Millerville,36267,Alabama,AL,Clay,27,,,33.1915,-85.9258,4
US,Edwardsville,36261,Alabama,AL,Cleburne,29,,,33.7066,-85.5099,4
US,Fruithurst,36262,Alabama,AL,Cleburne,29,,,33.7717,-85.4381,4
US,Heflin,36264,Alabama,AL,Cleburne,29,,,33.6115,-85.5885,4
US,Muscadine,36269,Alabama,AL,Cleburne,29,,,33.7529,-85.3789,4
US,Ranburne,36273,Alabama,AL,Cleburne,29,,,33.5616,-85.3786,4
US,Elba,36323,Alabama,AL,Coffee,31,,,31.4137,-86.0777,4
US,Enterprise,36330,Alabama,AL,Coffee,31,,,31.3408,-85.8421,4
US,Enterprise,36331,Alabama,AL,Coffee,31,,,31.2978,-85.9036,4
US,Jack,36346,Alabama,AL,Coffee,31,,,31.5652,-85.971,4
US,New Brockton,36351,Alabama,AL,Coffee,31,,,31.369,-85.9404,4
US,Kinston,36453,Alabama,AL,Coffee,31,,,31.1926,-86.1514,4
US,Cherokee,35616,Alabama,AL,Colbert,33,,,34.7442,-87.9724,4
US,Leighton,35646,Alabama,AL,Colbert,33,,,34.711,-87.5221,4
US,Sheffield,35660,Alabama,AL,Colbert,33,,,34.7578,-87.6971,4
US,Muscle Shoals,35661,Alabama,AL,Colbert,33,,,34.7561,-87.6304,4
US,Muscle Shoals,35662,Alabama,AL,Colbert,33,,,34.7448,-87.6675,4
US,Tuscumbia,35674,Alabama,AL,Colbert,33,,,34.6874,-87.6833,4
US,Evergreen,36401,Alabama,AL,Conecuh,35,,,31.458,-86.9258,4
US,Brooklyn,36429,Alabama,AL,Conecuh,35,,,31.2627,-86.7711,4
US,Castleberry,36432,Alabama,AL,Conecuh,35,,,31.2991,-87.0225,4
US,Lenox,36454,Alabama,AL,Conecuh,35,,,31.3366,-87.1855,4
US,Range,36473,Alabama,AL,Conecuh,35,,,31.3058,-87.2137,4
US,Repton,36475,Alabama,AL,Conecuh,35,,,31.4256,-87.172,4
US,Goodwater,35072,Alabama,AL,Coosa,37,,,33.0746,-86.0781,4
US,Kellyton,35089,Alabama,AL,Coosa,37,,,32.9791,-86.0484,4
US,Rockford,35136,Alabama,AL,Coosa,37,,,32.878,-86.24,4
US,Weogufka,35183,Alabama,AL,Coosa,37,,,33.0238,-86.3042,4
US,Equality,36026,Alabama,AL,Coosa,37,,,32.8139,-86.1051,4
US,Gantt,36038,Alabama,AL,Covington,39,,,31.4068,-86.4841,4
US,Andalusia,36420,Alabama,AL,Covington,39,,,31.2971,-86.4905,4
US,Florala,36442,Alabama,AL,Covington,39,,,31.0172,-86.3385,4
US,Lockhart,36455,Alabama,AL,Covington,39,,,31.0105,-86.3497,4
US,Opp,36467,Alabama,AL,Covington,39,,,31.2799,-86.2571,4
US,Red Level,36474,Alabama,AL,Covington,39,,,31.4399,-86.6121,4
US,River Falls,36476,Alabama,AL,Covington,39,,,31.3533,-86.541,4
US,Wing,36483,Alabama,AL,Covington,39,,,31.0223,-86.6293,4
US,Brantley,36009,Alabama,AL,Crenshaw,41,,,31.571,-86.2743,4
US,Dozier,36028,Alabama,AL,Crenshaw,41,,,31.5066,-86.3663,4
US,Glenwood,36034,Alabama,AL,Crenshaw,41,,,31.6641,-86.171,4
US,Highland Home,36041,Alabama,AL,Crenshaw,41,,,31.9283,-86.2971,4
US,Honoraville,36042,Alabama,AL,Crenshaw,41,,,31.8784,-86.3981,4
US,Luverne,36049,Alabama,AL,Crenshaw,41,,,31.7074,-86.2566,4
US,Petrey,36062,Alabama,AL,Crenshaw,41,,,31.8488,-86.2077,4
US,Rutledge,36071,Alabama,AL,Crenshaw,41,,,31.7062,-86.3715,4
US,Baileyton,35019,Alabama,AL,Cullman,43,,,34.2683,-86.6213,4
US,Bremen,35033,Alabama,AL,Cullman,43,,,33.9737,-87.0043,4
US,Crane Hill,35053,Alabama,AL,Cullman,43,,,34.0821,-87.0484,4
US,Cullman,35055,Alabama,AL,Cullman,43,,,34.1761,-86.8298,4
US,Cullman,35056,Alabama,AL,Cullman,43,,,34.1748,-86.8436,4
US,Cullman,35057,Alabama,AL,Cullman,43,,,34.0878,-86.9447,4
US,Cullman,35058,Alabama,AL,Cullman,43,,,34.2098,-86.752,4
US,Garden City,35070,Alabama,AL,Cullman,43,,,34.0058,-86.7499,4
US,Hanceville,35077,Alabama,AL,Cullman,43,,,34.0516,-86.7848,4
US,Holly Pond,35083,Alabama,AL,Cullman,43,,,34.1901,-86.6174,4
US,Joppa,35087,Alabama,AL,Cullman,43,,,34.2837,-86.5519,4
US,Logan,35098,Alabama,AL,Cullman,43,,,34.1377,-87.0266,4
US,Vinemont,35179,Alabama,AL,Cullman,43,,,34.2621,-86.9125,4
US,Ariton,36311,Alabama,AL,Dale,45,,,31.583,-85.7077,4
US,Clopton,36317,Alabama,AL,Dale,45,,,31.6446,-85.3911,4
US,Daleville,36322,Alabama,AL,Dale,45,,,31.2811,-85.7305,4
US,Midland City,36350,Alabama,AL,Dale,45,,,31.3191,-85.4938,4
US,Newton,36352,Alabama,AL,Dale,45,,,31.3311,-85.5992,4
US,Ozark,36360,Alabama,AL,Dale,45,,,31.4391,-85.6436,4
US,Ozark,36361,Alabama,AL,Dale,45,,,31.4591,-85.6405,4
US,Fort Rucker,36362,Alabama,AL,Dale,45,,,31.348,-85.7214,4
US,Pinckard,36371,Alabama,AL,Dale,45,,,31.3074,-85.5263,4
US,Skipperville,36374,Alabama,AL,Dale,45,,,31.5748,-85.537,4
US,Selma,36701,Alabama,AL,Dallas,47,,,32.4197,-87.0245,4
US,Selma,36702,Alabama,AL,Dallas,47,,,32.4074,-87.0211,4
US,Selma,36703,Alabama,AL,Dallas,47,,,32.4156,-87.0135,4
US,Plantersville,36758,Alabama,AL,Dallas,47,,,32.6176,-86.9475,4
US,Marion Junction,36759,Alabama,AL,Dallas,47,,,32.4266,-87.2702,4
US,Minter,36761,Alabama,AL,Dallas,47,,,32.1899,-87.0633,4
US,Orrville,36767,Alabama,AL,Dallas,47,,,32.2949,-87.2214,4
US,Safford,36773,Alabama,AL,Dallas,47,,,32.3002,-87.3693,4
US,Sardis,36775,Alabama,AL,Dallas,47,,,32.2844,-86.992,4
US,Tyler,36785,Alabama,AL,Dallas,47,,,32.3239,-86.8646,4
US,Collinsville,35961,Alabama,AL,DeKalb,49,,,34.268,-85.862,4
US,Crossville,35962,Alabama,AL,DeKalb,49,,,34.2588,-86.0306,4
US,Dawson,35963,Alabama,AL,DeKalb,49,,,34.3568,-85.9292,4
US,Fort Payne,35967,Alabama,AL,DeKalb,49,,,34.4368,-85.7124,4
US,Fort Payne,35968,Alabama,AL,DeKalb,49,,,34.4898,-85.7657,4
US,Fyffe,35971,Alabama,AL,DeKalb,49,,,34.4373,-85.9288,4
US,Geraldine,35974,Alabama,AL,DeKalb,49,,,34.3592,-86.024,4
US,Groveoak,35975,Alabama,AL,DeKalb,49,,,34.4359,-86.04,1
US,Henagar,35978,Alabama,AL,DeKalb,49,,,34.6186,-85.7274,4
US,Ider,35981,Alabama,AL,DeKalb,49,,,34.7351,-85.6416,4
US,Mentone,35984,Alabama,AL,DeKalb,49,,,34.5872,-85.5777,4
US,Rainsville,35986,Alabama,AL,DeKalb,49,,,34.4989,-85.8446,4
US,Sylvania,35988,Alabama,AL,DeKalb,49,,,34.559,-85.7921,4
US,Valley Head,35989,Alabama,AL,DeKalb,49,,,34.5697,-85.6272,4
US,Coosada,36020,Alabama,AL,Elmore,51,,,32.5056,-86.3322,4
US,Deatsville,36022,Alabama,AL,Elmore,51,,,32.6082,-86.3958,4
US,Eclectic,36024,Alabama,AL,Elmore,51,,,32.6542,-86.0316,4
US,Elmore,36025,Alabama,AL,Elmore,51,,,32.5454,-86.3161,4
US,Kent,36045,Alabama,AL,Elmore,51,,,32.619,-85.9486,4
US,Millbrook,36054,Alabama,AL,Elmore,51,,,32.4995,-86.3641,4
US,Tallassee,36078,Alabama,AL,Elmore,51,,,32.551,-85.8978,4
US,Titus,36080,Alabama,AL,Elmore,51,,,32.69,-86.2393,4
US,Wetumpka,36092,Alabama,AL,Elmore,51,,,32.5927,-86.2153,4
US,Wetumpka,36093,Alabama,AL,Elmore,51,,,32.5622,-86.0994,4
US,Brewton,36426,Alabama,AL,Escambia,53,,,31.1294,-87.0961,4
US,Brewton,36427,Alabama,AL,Escambia,53,,,31.1052,-87.0722,4
US,Flomaton,36441,Alabama,AL,Escambia,53,,,31.0402,-87.2664,4
US,Atmore,36502,Alabama,AL,Escambia,53,,,31.0572,-87.4873,4
US,Atmore,36503,Alabama,AL,Escambia,53,,,31.0238,-87.4939,4
US,Atmore,36504,Alabama,AL,Escambia,53,,,31.0158,-87.4972,4
US,Huxford,36543,Alabama,AL,Escambia,53,,,31.2202,-87.4619,4
US,Gadsden,35901,Alabama,AL,Etowah,55,,,34.048,-85.9246,4
US,Gadsden,35902,Alabama,AL,Etowah,55,,,34.0143,-86.0066,4
US,Gadsden,35903,Alabama,AL,Etowah,55,,,33.9845,-85.9077,4
US,Gadsden,35904,Alabama,AL,Etowah,55,,,34.0217,-86.0495,4
US,Gadsden,35905,Alabama,AL,Etowah,55,,,33.9352,-85.9576,4
US,Rainbow City,35906,Alabama,AL,Etowah,55,,,33.9318,-86.0898,4
US,Gadsden,35907,Alabama,AL,Etowah,55,,,33.8979,-86.0245,4
US,Altoona,35952,Alabama,AL,Etowah,55,,,34.071,-86.2096,4
US,Attalla,35954,Alabama,AL,Etowah,55,,,34.0296,-86.0967,4
US,Gallant,35972,Alabama,AL,Etowah,55,,,33.9976,-86.2346,4
US,Walnut Grove,35990,Alabama,AL,Etowah,55,,,34.0657,-86.3064,4
US,Bankston,35542,Alabama,AL,Fayette,57,,,33.7008,-87.6897,4
US,Belk,35545,Alabama,AL,Fayette,57,,,33.6476,-87.9314,4
US,Berry,35546,Alabama,AL,Fayette,57,,,33.6945,-87.6226,4
US,Fayette,35555,Alabama,AL,Fayette,57,,,33.6974,-87.8346,4
US,Glen Allen,35559,Alabama,AL,Fayette,57,,,33.9151,-87.7417,4
US,Hodges,35571,Alabama,AL,Franklin,59,,,34.3417,-87.959,4
US,Phil Campbell,35581,Alabama,AL,Franklin,59,,,34.347,-87.7154,4
US,Red Bay,35582,Alabama,AL,Franklin,59,,,34.4513,-88.1129,4
US,Spruce Pine,35585,Alabama,AL,Franklin,59,,,34.4246,-87.8145,4
US,Vina,35593,Alabama,AL,Franklin,59,,,34.3712,-88.0774,4
US,Russellville,35653,Alabama,AL,Franklin,59,,,34.5066,-87.7257,4
US,Russellville,35654,Alabama,AL,Franklin,59,,,34.4675,-87.6478,4
US,Bellwood,36313,Alabama,AL,Geneva,61,,,31.1732,-85.7933,4
US,Black,36314,Alabama,AL,Geneva,61,,,31.0132,-85.7456,4
US,Chancellor,36316,Alabama,AL,Geneva,61,,,31.1767,-85.8135,4
US,Coffee Springs,36318,Alabama,AL,Geneva,61,,,31.1388,-85.9182,4
US,Geneva,36340,Alabama,AL,Geneva,61,,,31.0414,-85.8847,4
US,Hartford,36344,Alabama,AL,Geneva,61,,,31.086,-85.7192,4
US,Malvern,36349,Alabama,AL,Geneva,61,,,31.1212,-85.5592,4
US,Slocomb,36375,Alabama,AL,Geneva,61,,,31.0956,-85.583,4
US,Samson,36477,Alabama,AL,Geneva,61,,,31.1049,-86.0674,4
US,Boligee,35443,Alabama,AL,Greene,63,,,32.7746,-88.0267,4
US,Clinton,35448,Alabama,AL,Greene,63,,,32.9137,-87.9925,4
US,Eutaw,35462,Alabama,AL,Greene,63,,,32.8889,-87.9303,4
US,Knoxville,35469,Alabama,AL,Greene,63,,,32.9824,-87.7919,4
US,West Greene,35491,Alabama,AL,Greene,63,,,32.9237,-88.0853,4
US,Forkland,36740,Alabama,AL,Greene,63,,,32.6108,-87.8441,4
US,Akron,35441,Alabama,AL,Hale,65,,,32.8553,-87.7219,4
US,Moundville,35474,Alabama,AL,Hale,65,,,32.9108,-87.5935,4
US,Gallion,36742,Alabama,AL,Hale,65,,,32.5298,-87.6985,4
US,Greensboro,36744,Alabama,AL,Hale,65,,,32.7167,-87.5905,4
US,Newbern,36765,Alabama,AL,Hale,65,,,32.5515,-87.5615,4
US,Sawyerville,36776,Alabama,AL,Hale,65,,,32.7578,-87.7402,4
US,Abbeville,36310,Alabama,AL,Henry,67,,,31.5755,-85.279,4
US,Headland,36345,Alabama,AL,Henry,67,,,31.3534,-85.3323,4
US,Newville,36353,Alabama,AL,Henry,67,,,31.4403,-85.3287,4
US,Shorterville,36373,Alabama,AL,Henry,67,,,31.501,-85.1135,4
US,Dothan,36301,Alabama,AL,Houston,69,,,31.1481,-85.3718,4
US,Dothan,36302,Alabama,AL,Houston,69,,,31.2232,-85.3905,4
US,Dothan,36303,Alabama,AL,Houston,69,,,31.2668,-85.3971,4
US,Dothan,36304,Alabama,AL,Houston,69,,,31.156,-85.3559,4
US,Dothan,36305,Alabama,AL,Houston,69,,,31.2197,-85.4828,4
US,Ashford,36312,Alabama,AL,Houston,69,,,31.1888,-85.2535,4
US,Columbia,36319,Alabama,AL,Houston,69,,,31.3352,-85.1455,4
US,Cottonwood,36320,Alabama,AL,Houston,69,,,31.0507,-85.3154,4
US,Cowarts,36321,Alabama,AL,Houston,69,,,31.2025,-85.3014,4
US,Gordon,36343,Alabama,AL,Houston,69,,,31.1002,-85.1234,4
US,Pansey,36370,Alabama,AL,Houston,69,,,31.1403,-85.1573,4
US,Webb,36376,Alabama,AL,Houston,69,,,31.2656,-85.2544,4
US,Bridgeport,35740,Alabama,AL,Jackson,71,,,34.9446,-85.7277,4
US,Dutton,35744,Alabama,AL,Jackson,71,,,34.6046,-85.9067,4
US,Estillfork,35745,Alabama,AL,Jackson,71,,,34.913,-86.1716,4
US,Fackler,35746,Alabama,AL,Jackson,71,,,34.8259,-85.9846,4
US,Hollytree,35751,Alabama,AL,Jackson,71,,,34.7955,-86.2743,4
US,Hollywood,35752,Alabama,AL,Jackson,71,,,34.7304,-85.9532,4
US,Langston,35755,Alabama,AL,Jackson,71,,,34.5001,-86.1353,4
US,Paint Rock,35764,Alabama,AL,Jackson,71,,,34.7031,-86.3068,4
US,Pisgah,35765,Alabama,AL,Jackson,71,,,34.6809,-85.8478,4
US,Princeton,35766,Alabama,AL,Jackson,71,,,34.8713,-86.2513,4
US,Scottsboro,35768,Alabama,AL,Jackson,71,,,34.7507,-86.1422,4
US,Scottsboro,35769,Alabama,AL,Jackson,71,,,34.618,-86.0562,4
US,Section,35771,Alabama,AL,Jackson,71,,,34.5433,-85.994,4
US,Stevenson,35772,Alabama,AL,Jackson,71,,,34.8769,-85.8508,4
US,Trenton,35774,Alabama,AL,Jackson,71,,,34.7632,-86.2295,4
US,Woodville,35776,Alabama,AL,Jackson,71,,,34.6689,-86.2296,4
US,Bryant,35958,Alabama,AL,Jackson,71,,,34.945,-85.6324,4
US,Flat Rock,35966,Alabama,AL,Jackson,71,,,34.8076,-85.7084,4
US,Higdon,35979,Alabama,AL,Jackson,71,,,34.8391,-85.6196,4
US,Adamsville,35005,Alabama,AL,Jefferson,73,,,33.5884,-86.9597,4
US,Adger,35006,Alabama,AL,Jefferson,73,,,33.4343,-87.1675,4
US,Alton,35015,Alabama,AL,Jefferson,73,,,33.5793,-86.6375,4
US,Bessemer,35020,Alabama,AL,Jefferson,73,,,33.409,-86.9475,4
US,Bessemer,35021,Alabama,AL,Jefferson,73,,,33.5446,-86.9292,4
US,Bessemer,35022,Alabama,AL,Jefferson,73,,,33.3224,-86.9657,4
US,Bessemer,35023,Alabama,AL,Jefferson,73,,,33.468,-87.0924,4
US,Brookside,35036,Alabama,AL,Jefferson,73,,,33.6379,-86.9167,4
US,Clay,35048,Alabama,AL,Jefferson,73,,,33.7026,-86.5997,4
US,Docena,35060,Alabama,AL,Jefferson,73,,,33.5589,-86.9294,4
US,Dolomite,35061,Alabama,AL,Jefferson,73,,,33.4654,-86.9564,4
US,Fairfield,35064,Alabama,AL,Jefferson,73,,,33.4735,-86.9183,4
US,Fultondale,35068,Alabama,AL,Jefferson,73,,,33.6017,-86.8265,4
US,Gardendale,35071,Alabama,AL,Jefferson,73,,,33.7189,-86.8225,4
US,Graysville,35073,Alabama,AL,Jefferson,73,,,33.6539,-86.9803,4
US,Kimberly,35091,Alabama,AL,Jefferson,73,,,33.7684,-86.8084,4
US,Leeds,35094,Alabama,AL,Jefferson,73,,,33.5283,-86.5748,4
US,Mc Calla,35111,Alabama,AL,Jefferson,73,,,33.2845,-87.1024,1
US,Morris,35116,Alabama,AL,Jefferson,73,,,33.7392,-86.7726,4
US,Mount Olive,35117,Alabama,AL,Jefferson,73,,,33.6768,-86.8717,4
US,Mulga,35118,Alabama,AL,Jefferson,73,,,33.5363,-87.051,4
US,New Castle,35119,Alabama,AL,Jefferson,73,,,33.649,-86.7686,4
US,Palmerdale,35123,Alabama,AL,Jefferson,73,,,33.7387,-86.6461,4
US,Pinson,35126,Alabama,AL,Jefferson,73,,,33.7299,-86.6451,4
US,Pleasant Grove,35127,Alabama,AL,Jefferson,73,,,33.4883,-86.9766,4
US,Sayre,35139,Alabama,AL,Jefferson,73,,,33.7111,-86.9759,4
US,Shannon,35142,Alabama,AL,Jefferson,73,,,33.4069,-86.8735,4
US,Trafford,35172,Alabama,AL,Jefferson,73,,,33.819,-86.7434,4
US,Trussville,35173,Alabama,AL,Jefferson,73,,,33.6339,-86.5981,4
US,Warrior,35180,Alabama,AL,Jefferson,73,,,33.8529,-86.8198,4
US,Watson,35181,Alabama,AL,Jefferson,73,,,33.5446,-86.9292,4
US,Birmingham,35201,Alabama,AL,Jefferson,73,,,33.5207,-86.8025,4
US,Birmingham,35202,Alabama,AL,Jefferson,73,,,33.5207,-86.8025,4
US,Birmingham,35203,Alabama,AL,Jefferson,73,,,33.521,-86.8066,4
US,Birmingham,35204,Alabama,AL,Jefferson,73,,,33.5179,-86.8372,4
US,Birmingham,35205,Alabama,AL,Jefferson,73,,,33.4951,-86.8059,4
US,Birmingham,35206,Alabama,AL,Jefferson,73,,,33.5678,-86.7199,4
US,Birmingham,35207,Alabama,AL,Jefferson,73,,,33.5594,-86.8153,4
US,Birmingham,35208,Alabama,AL,Jefferson,73,,,33.4977,-86.8799,4
US,Birmingham,35209,Alabama,AL,Jefferson,73,,,33.4653,-86.8082,4
US,Birmingham,35210,Alabama,AL,Jefferson,73,,,33.5452,-86.6655,4
US,Birmingham,35211,Alabama,AL,Jefferson,73,,,33.4816,-86.859,4
US,Birmingham,35212,Alabama,AL,Jefferson,73,,,33.5409,-86.7495,4
US,Birmingham,35213,Alabama,AL,Jefferson,73,,,33.5066,-86.7428,4
US,Birmingham,35214,Alabama,AL,Jefferson,73,,,33.5554,-86.887,4
US,Birmingham,35215,Alabama,AL,Jefferson,73,,,33.6493,-86.7057,4
US,Birmingham,35216,Alabama,AL,Jefferson,73,,,33.4188,-86.7867,4
US,Birmingham,35217,Alabama,AL,Jefferson,73,,,33.5887,-86.765,4
US,Birmingham,35218,Alabama,AL,Jefferson,73,,,33.506,-86.893,4
US,Birmingham,35219,Alabama,AL,Jefferson,73,,,33.5446,-86.9292,4
US,Birmingham,35220,Alabama,AL,Jefferson,73,,,33.5446,-86.9292,4
US,Birmingham,35221,Alabama,AL,Jefferson,73,,,33.4523,-86.8935,4
US,Birmingham,35222,Alabama,AL,Jefferson,73,,,33.5219,-86.7666,4
US,Birmingham,35223,Alabama,AL,Jefferson,73,,,33.4995,-86.7268,4
US,Birmingham,35224,Alabama,AL,Jefferson,73,,,33.5191,-86.9342,4
US,Birmingham,35226,Alabama,AL,Jefferson,73,,,33.3967,-86.8346,4
US,Birmingham,35228,Alabama,AL,Jefferson,73,,,33.4558,-86.9118,4
US,Birmingham,35229,Alabama,AL,Jefferson,73,,,33.4629,-86.7904,4
US,Birmingham,35231,Alabama,AL,Jefferson,73,,,33.5446,-86.9292,4
US,Birmingham,35232,Alabama,AL,Jefferson,73,,,33.5446,-86.9292,4
US,Birmingham,35233,Alabama,AL,Jefferson,73,,,33.5062,-86.8003,4
US,Birmingham,35234,Alabama,AL,Jefferson,73,,,33.5378,-86.8068,4
US,Birmingham,35235,Alabama,AL,Jefferson,73,,,33.6328,-86.6493,4
US,Birmingham,35236,Alabama,AL,Jefferson,73,,,33.5446,-86.9292,4
US,Birmingham,35237,Alabama,AL,Jefferson,73,,,33.5207,-86.8025,4
US,Birmingham,35238,Alabama,AL,Jefferson,73,,,33.5446,-86.9292,4
US,Birmingham,35243,Alabama,AL,Jefferson,73,,,33.4459,-86.7502,4
US,Birmingham,35244,Alabama,AL,Jefferson,73,,,33.3538,-86.8254,4
US,Birmingham,35246,Alabama,AL,Jefferson,73,,,33.5207,-86.8025,4
US,Birmingham,35249,Alabama,AL,Jefferson,73,,,33.5207,-86.8025,4
US,Birmingham,35253,Alabama,AL,Jefferson,73,,,33.5446,-86.9292,4
US,Birmingham,35254,Alabama,AL,Jefferson,73,,,33.5446,-86.9292,4
US,Birmingham,35255,Alabama,AL,Jefferson,73,,,33.5446,-86.9292,4
US,Birmingham,35259,Alabama,AL,Jefferson,73,,,33.5446,-86.9292,4
US,Birmingham,35260,Alabama,AL,Jefferson,73,,,33.5446,-86.9292,4
US,Birmingham,35261,Alabama,AL,Jefferson,73,,,33.5446,-86.9292,4
US,Birmingham,35266,Alabama,AL,Jefferson,73,,,33.3729,-86.8531,4
US,Birmingham,35270,Alabama,AL,Jefferson,73,,,33.5206,-86.8025,
US,Birmingham,35282,Alabama,AL,Jefferson,73,,,33.5446,-86.9292,4
US,Birmingham,35283,Alabama,AL,Jefferson,73,,,33.5207,-86.8025,4
US,Birmingham,35285,Alabama,AL,Jefferson,73,,,33.5446,-86.9292,4
US,Birmingham,35287,Alabama,AL,Jefferson,73,,,33.5207,-86.8025,4
US,Birmingham,35288,Alabama,AL,Jefferson,73,,,33.4458,-86.9285,4
US,Birmingham,35290,Alabama,AL,Jefferson,73,,,33.5446,-86.9292,4
US,Birmingham,35291,Alabama,AL,Jefferson,73,,,33.5207,-86.8025,4
US,Birmingham,35292,Alabama,AL,Jefferson,73,,,33.5207,-86.8025,4
US,Birmingham,35293,Alabama,AL,Jefferson,73,,,33.5446,-86.9292,4
US,Birmingham,35294,Alabama,AL,Jefferson,73,,,33.5446,-86.9292,4
US,Birmingham,35295,Alabama,AL,Jefferson,73,,,33.5207,-86.8025,4
US,Birmingham,35296,Alabama,AL,Jefferson,73,,,33.5446,-86.9292,4
US,Birmingham,35297,Alabama,AL,Jefferson,73,,,33.5446,-86.9292,4
US,Birmingham,35298,Alabama,AL,Jefferson,73,,,33.5446,-86.9292,4
US,Beaverton,35544,Alabama,AL,Lamar,75,,,33.9429,-88.0157,4
US,Detroit,35552,Alabama,AL,Lamar,75,,,34.0282,-88.17,4
US,Kennedy,35574,Alabama,AL,Lamar,75,,,33.6153,-87.9948,4
US,Millport,35576,Alabama,AL,Lamar,75,,,33.5401,-88.2,4
US,Sulligent,35586,Alabama,AL,Lamar,75,,,33.8549,-88.1508,4
US,Vernon,35592,Alabama,AL,Lamar,75,,,33.7613,-88.0979,4
US,Anderson,35610,Alabama,AL,Lauderdale,77,,,34.9424,-87.2734,4
US,Cloverdale,35617,Alabama,AL,Lauderdale,77,,,34.9387,-87.7714,4
US,Florence,35630,Alabama,AL,Lauderdale,77,,,34.8305,-87.656,4
US,Florence,35631,Alabama,AL,Lauderdale,77,,,34.87,-87.7069,4
US,Florence,35632,Alabama,AL,Lauderdale,77,,,34.87,-87.7069,4
US,Florence,35633,Alabama,AL,Lauderdale,77,,,34.8825,-87.7398,4
US,Florence,35634,Alabama,AL,Lauderdale,77,,,34.9186,-87.6136,4
US,Killen,35645,Alabama,AL,Lauderdale,77,,,34.9016,-87.5082,4
US,Lexington,35648,Alabama,AL,Lauderdale,77,,,34.9559,-87.3935,4
US,Rogersville,35652,Alabama,AL,Lauderdale,77,,,34.8495,-87.3237,4
US,Waterloo,35677,Alabama,AL,Lauderdale,77,,,34.9357,-87.9624,4
US,Courtland,35618,Alabama,AL,Lawrence,79,,,34.6719,-87.3143,4
US,Hillsboro,35643,Alabama,AL,Lawrence,79,,,34.6476,-87.1804,4
US,Moulton,35650,Alabama,AL,Lawrence,79,,,34.5058,-87.2224,4
US,Mount Hope,35651,Alabama,AL,Lawrence,79,,,34.4793,-87.4769,4
US,Town Creek,35672,Alabama,AL,Lawrence,79,,,34.6491,-87.4262,4
US,Opelika,36801,Alabama,AL,Lee,81,,,32.6454,-85.3783,4
US,Opelika,36802,Alabama,AL,Lee,81,,,32.5782,-85.349,4
US,Opelika,36803,Alabama,AL,Lee,81,,,32.6454,-85.3783,4
US,Opelika,36804,Alabama,AL,Lee,81,,,32.5768,-85.312,4
US,Auburn,36830,Alabama,AL,Lee,81,,,32.5475,-85.4682,4
US,Auburn,36831,Alabama,AL,Lee,81,,,32.6099,-85.4808,4
US,Auburn,36832,Alabama,AL,Lee,81,,,32.592,-85.5189,4
US,Auburn University,36849,Alabama,AL,Lee,81,,,32.6024,-85.4873,4
US,Loachapoka,36865,Alabama,AL,Lee,81,,,32.6043,-85.5933,4
US,Valley,36872,Alabama,AL,Lee,81,,,32.5782,-85.349,4
US,Salem,36874,Alabama,AL,Lee,81,,,32.6212,-85.184,4
US,Smiths Station,36877,Alabama,AL,Lee,81,,,32.5401,-85.0985,4
US,Waverly,36879,Alabama,AL,Lee,81,,,32.7632,-85.5144,4
US,Athens,35611,Alabama,AL,Limestone,83,,,34.8036,-86.9707,4
US,Athens,35612,Alabama,AL,Limestone,83,,,34.7749,-87.0305,4
US,Athens,35613,Alabama,AL,Limestone,83,,,34.8317,-86.8867,4
US,Athens,35614,Alabama,AL,Limestone,83,,,34.8474,-87.0607,4
US,Belle Mina,35615,Alabama,AL,Limestone,83,,,34.6568,-86.8792,4
US,Elkmont,35620,Alabama,AL,Limestone,83,,,34.929,-86.9739,4
US,Lester,35647,Alabama,AL,Limestone,83,,,34.9596,-87.1006,4
US,Mooresville,35649,Alabama,AL,Limestone,83,,,34.6259,-86.8746,4
US,Tanner,35671,Alabama,AL,Limestone,83,,,34.6796,-86.9625,4
US,Ardmore,35739,Alabama,AL,Limestone,83,,,34.9804,-86.8346,4
US,Capshaw,35742,Alabama,AL,Limestone,83,,,34.7731,-86.7928,4
US,Fort Deposit,36032,Alabama,AL,Lowndes,85,,,31.996,-86.5761,4
US,Hayneville,36040,Alabama,AL,Lowndes,85,,,32.1957,-86.655,4
US,Letohatchee,36047,Alabama,AL,Lowndes,85,,,32.0862,-86.488,4
US,Lowndesboro,36752,Alabama,AL,Lowndes,85,,,32.2943,-86.6471,4
US,Fort Davis,36031,Alabama,AL,Macon,87,,,32.2507,-85.7524,4
US,Hardaway,36039,Alabama,AL,Macon,87,,,32.3129,-85.8838,4
US,Shorter,36075,Alabama,AL,Macon,87,,,32.3836,-85.9162,4
US,Tuskegee,36083,Alabama,AL,Macon,87,,,32.4316,-85.6861,4
US,Tuskegee Institute,36087,Alabama,AL,Macon,87,,,32.4093,-85.738,1
US,Tuskegee Institute,36088,Alabama,AL,Macon,87,,,32.4145,-85.7253,1
US,Notasulga,36866,Alabama,AL,Macon,87,,,32.5437,-85.6871,4
US,Brownsboro,35741,Alabama,AL,Madison,89,,,34.7167,-86.4687,4
US,Gurley,35748,Alabama,AL,Madison,89,,,34.714,-86.394,4
US,Harvest,35749,Alabama,AL,Madison,89,,,34.8273,-86.7499,4
US,Hazel Green,35750,Alabama,AL,Madison,89,,,34.9496,-86.5935,4
US,Madison,35756,Alabama,AL,Madison,89,,,34.643,-86.8168,4
US,Madison,35757,Alabama,AL,Madison,89,,,34.7782,-86.7442,4
US,Madison,35758,Alabama,AL,Madison,89,,,34.7108,-86.7425,4
US,Meridianville,35759,Alabama,AL,Madison,89,,,34.8618,-86.5789,4
US,New Hope,35760,Alabama,AL,Madison,89,,,34.5494,-86.3961,4
US,New Market,35761,Alabama,AL,Madison,89,,,34.9,-86.4487,4
US,Normal,35762,Alabama,AL,Madison,89,,,34.789,-86.5719,4
US,Owens Cross Roads,35763,Alabama,AL,Madison,89,,,34.6215,-86.4644,4
US,Ryland,35767,Alabama,AL,Madison,89,,,34.7698,-86.4808,4
US,Toney,35773,Alabama,AL,Madison,89,,,34.9116,-86.7,4
US,Huntsville,35801,Alabama,AL,Madison,89,,,34.7269,-86.5673,4
US,Huntsville,35802,Alabama,AL,Madison,89,,,34.6679,-86.5603,4
US,Huntsville,35803,Alabama,AL,Madison,89,,,34.6205,-86.551,4
US,Huntsville,35804,Alabama,AL,Madison,89,,,34.7284,-86.5853,4
US,Huntsville,35805,Alabama,AL,Madison,89,,,34.7059,-86.6165,4
US,Huntsville,35806,Alabama,AL,Madison,89,,,34.7448,-86.6704,4
US,Huntsville,35807,Alabama,AL,Madison,89,,,34.734,-86.5229,4
US,Huntsville,35808,Alabama,AL,Madison,89,,,34.6845,-86.6538,4
US,Huntsville,35809,Alabama,AL,Madison,89,,,34.734,-86.5229,4
US,Huntsville,35810,Alabama,AL,Madison,89,,,34.7784,-86.6091,4
US,Huntsville,35811,Alabama,AL,Madison,89,,,34.7789,-86.5438,4
US,Huntsville,35812,Alabama,AL,Madison,89,,,34.734,-86.5229,4
US,Huntsville,35813,Alabama,AL,Madison,89,,,34.734,-86.5229,4
US,Huntsville,35814,Alabama,AL,Madison,89,,,34.734,-86.5229,4
US,Huntsville,35815,Alabama,AL,Madison,89,,,34.734,-86.5229,4
US,Huntsville,35816,Alabama,AL,Madison,89,,,34.7389,-86.6249,4
US,Huntsville,35824,Alabama,AL,Madison,89,,,34.6583,-86.7295,4
US,Huntsville,35893,Alabama,AL,Madison,89,,,34.7304,-86.5861,4
US,Huntsville,35894,Alabama,AL,Madison,89,,,34.734,-86.5229,4
US,Huntsville,35895,Alabama,AL,Madison,89,,,34.7304,-86.5861,4
US,Huntsville,35896,Alabama,AL,Madison,89,,,34.7543,-86.6546,4
US,Huntsville,35897,Alabama,AL,Madison,89,,,34.734,-86.5229,4
US,Huntsville,35898,Alabama,AL,Madison,89,,,34.734,-86.5229,4
US,Huntsville,35899,Alabama,AL,Madison,89,,,34.7339,-86.6456,4
US,Demopolis,36732,Alabama,AL,Marengo,91,,,32.4908,-87.8397,4
US,Dixons Mills,36736,Alabama,AL,Marengo,91,,,32.0672,-87.7454,4
US,Faunsdale,36738,Alabama,AL,Marengo,91,,,32.4233,-87.6181,4
US,Jefferson,36745,Alabama,AL,Marengo,91,,,32.414,-87.8986,4
US,Linden,36748,Alabama,AL,Marengo,91,,,32.3053,-87.7954,4
US,Magnolia,36754,Alabama,AL,Marengo,91,,,32.1419,-87.6998,4
US,Myrtlewood,36763,Alabama,AL,Marengo,91,,,32.2516,-87.9494,4
US,Nanafalia,36764,Alabama,AL,Marengo,91,,,32.1129,-87.9881,4
US,Sweet Water,36782,Alabama,AL,Marengo,91,,,32.0773,-87.9228,4
US,Thomaston,36783,Alabama,AL,Marengo,91,,,32.2538,-87.5974,4
US,Bear Creek,35543,Alabama,AL,Marion,93,,,34.1649,-87.7396,4
US,Brilliant,35548,Alabama,AL,Marion,93,,,34.0377,-87.7563,4
US,Guin,35563,Alabama,AL,Marion,93,,,33.9676,-87.9024,4
US,Hackleburg,35564,Alabama,AL,Marion,93,,,34.2678,-87.8608,4
US,Hamilton,35570,Alabama,AL,Marion,93,,,34.1534,-88.0085,4
US,Winfield,35594,Alabama,AL,Marion,93,,,33.9303,-87.7972,4
US,Arab,35016,Alabama,AL,Marshall,95,,,34.3283,-86.4896,4
US,Union Grove,35175,Alabama,AL,Marshall,95,,,34.4093,-86.4628,4
US,Grant,35747,Alabama,AL,Marshall,95,,,34.4959,-86.259,4
US,Albertville,35950,Alabama,AL,Marshall,95,,,34.2739,-86.2064,4
US,Albertville,35951,Alabama,AL,Marshall,95,,,34.3223,-86.1935,4
US,Boaz,35956,Alabama,AL,Marshall,95,,,34.1437,-86.148,4
US,Boaz,35957,Alabama,AL,Marshall,95,,,34.1921,-86.1941,4
US,Douglas,35964,Alabama,AL,Marshall,95,,,34.1737,-86.3236,4
US,Guntersville,35976,Alabama,AL,Marshall,95,,,34.3449,-86.2752,4
US,Horton,35980,Alabama,AL,Marshall,95,,,34.19,-86.3173,4
US,Andalusia,36421,Alabama,AL,Mobile,97,,,31.3247,-86.5067,4
US,Axis,36505,Alabama,AL,Mobile,97,,,30.9394,-88.0159,4
US,Bayou La Batre,36509,Alabama,AL,Mobile,97,,,30.408,-88.2507,4
US,Bucks,36512,Alabama,AL,Mobile,97,,,31.0105,-88.0242,4
US,Chunchula,36521,Alabama,AL,Mobile,97,,,30.9912,-88.1311,4
US,Citronelle,36522,Alabama,AL,Mobile,97,,,31.0425,-88.2549,4
US,Coden,36523,Alabama,AL,Mobile,97,,,30.3903,-88.2076,4
US,Creola,36525,Alabama,AL,Mobile,97,,,30.9013,-88.0174,4
US,Dauphin Island,36528,Alabama,AL,Mobile,97,,,30.2521,-88.1096,4
US,Grand Bay,36541,Alabama,AL,Mobile,97,,,30.4983,-88.3282,4
US,Irvington,36544,Alabama,AL,Mobile,97,,,30.4802,-88.2396,4
US,Mount Vernon,36560,Alabama,AL,Mobile,97,,,31.0974,-88.035,4
US,Saint Elmo,36568,Alabama,AL,Mobile,97,,,30.5035,-88.2542,4
US,Saraland,36571,Alabama,AL,Mobile,97,,,30.8332,-88.0934,4
US,Satsuma,36572,Alabama,AL,Mobile,97,,,30.8516,-88.0533,4
US,Semmes,36575,Alabama,AL,Mobile,97,,,30.7544,-88.2667,4
US,Theodore,36582,Alabama,AL,Mobile,97,,,30.5444,-88.1807,4
US,Wilmer,36587,Alabama,AL,Mobile,97,,,30.8137,-88.3332,4
US,Theodore,36590,Alabama,AL,Mobile,97,,,30.488,-88.2533,4
US,Mobile,36601,Alabama,AL,Mobile,97,,,30.6944,-88.0431,4
US,Mobile,36602,Alabama,AL,Mobile,97,,,30.6888,-88.0453,4
US,Mobile,36603,Alabama,AL,Mobile,97,,,30.6921,-88.0562,4
US,Mobile,36604,Alabama,AL,Mobile,97,,,30.682,-88.0678,4
US,Mobile,36605,Alabama,AL,Mobile,97,,,30.6341,-88.0846,4
US,Mobile,36606,Alabama,AL,Mobile,97,,,30.6729,-88.1009,4
US,Mobile,36607,Alabama,AL,Mobile,97,,,30.6975,-88.1029,4
US,Mobile,36608,Alabama,AL,Mobile,97,,,30.6817,-88.2945,4
US,Mobile,36609,Alabama,AL,Mobile,97,,,30.6605,-88.1618,4
US,Mobile,36610,Alabama,AL,Mobile,97,,,30.7309,-88.0789,4
US,Mobile,36611,Alabama,AL,Mobile,97,,,30.7705,-88.0781,4
US,Mobile,36612,Alabama,AL,Mobile,97,,,30.7518,-88.1131,4
US,Eight Mile,36613,Alabama,AL,Mobile,97,,,30.7951,-88.1823,4
US,Mobile,36615,Alabama,AL,Mobile,97,,,30.6411,-88.0622,4
US,Mobile,36616,Alabama,AL,Mobile,97,,,30.671,-88.1267,4
US,Mobile,36617,Alabama,AL,Mobile,97,,,30.7145,-88.0918,4
US,Mobile,36618,Alabama,AL,Mobile,97,,,30.7322,-88.1758,4
US,Mobile,36619,Alabama,AL,Mobile,97,,,30.5928,-88.1946,4
US,Mobile,36628,Alabama,AL,Mobile,97,,,30.6944,-88.0431,4
US,Mobile,36633,Alabama,AL,Mobile,97,,,30.6589,-88.178,4
US,Mobile,36640,Alabama,AL,Mobile,97,,,30.6589,-88.178,4
US,Mobile,36641,Alabama,AL,Mobile,97,,,30.6589,-88.178,4
US,Mobile,36644,Alabama,AL,Mobile,97,,,30.6944,-88.0431,4
US,Mobile,36652,Alabama,AL,Mobile,97,,,30.6944,-88.0431,4
US,Mobile,36660,Alabama,AL,Mobile,97,,,30.6589,-88.178,4
US,Mobile,36663,Alabama,AL,Mobile,97,,,30.6944,-88.0431,4
US,Mobile,36670,Alabama,AL,Mobile,97,,,30.6589,-88.178,4
US,Mobile,36671,Alabama,AL,Mobile,97,,,30.6589,-88.178,4
US,Mobile,36675,Alabama,AL,Mobile,97,,,30.6944,-88.0431,4
US,Mobile,36685,Alabama,AL,Mobile,97,,,30.6589,-88.178,4
US,Mobile,36688,Alabama,AL,Mobile,97,,,30.6962,-88.1821,4
US,Mobile,36689,Alabama,AL,Mobile,97,,,30.6589,-88.178,4
US,Mobile,36691,Alabama,AL,Mobile,97,,,30.6944,-88.0431,4
US,Mobile,36693,Alabama,AL,Mobile,97,,,30.6311,-88.1588,4
US,Mobile,36695,Alabama,AL,Mobile,97,,,30.6474,-88.2292,4
US,Beatrice,36425,Alabama,AL,Monroe,99,,,31.7273,-87.1719,4
US,Excel,36439,Alabama,AL,Monroe,99,,,31.4279,-87.3414,4
US,Franklin,36444,Alabama,AL,Monroe,99,,,31.7238,-87.4412,4
US,Frisco City,36445,Alabama,AL,Monroe,99,,,31.4235,-87.3817,4
US,Goodway,36449,Alabama,AL,Monroe,99,,,31.3368,-87.4258,4
US,Megargel,36457,Alabama,AL,Monroe,99,,,31.3612,-87.4353,4
US,Mexia,36458,Alabama,AL,Monroe,99,,,31.5147,-87.4084,4
US,Monroeville,36460,Alabama,AL,Monroe,99,,,31.5153,-87.341,4
US,Monroeville,36461,Alabama,AL,Monroe,99,,,31.5221,-87.3411,4
US,Perdue Hill,36470,Alabama,AL,Monroe,99,,,31.5141,-87.4933,4
US,Peterman,36471,Alabama,AL,Monroe,99,,,31.59,-87.26,4
US,Uriah,36480,Alabama,AL,Monroe,99,,,31.3135,-87.5705,4
US,Vredenburgh,36481,Alabama,AL,Monroe,99,,,31.8085,-87.3164,4
US,Cecil,36013,Alabama,AL,Montgomery,101,,,32.2937,-85.9827,4
US,Grady,36036,Alabama,AL,Montgomery,101,,,32.0194,-86.1292,4
US,Hope Hull,36043,Alabama,AL,Montgomery,101,,,32.2243,-86.3932,4
US,Lapine,36046,Alabama,AL,Montgomery,101,,,31.9657,-86.2844,4
US,Mathews,36052,Alabama,AL,Montgomery,101,,,32.1283,-86.0413,1
US,Mount Meigs,36057,Alabama,AL,Montgomery,101,,,32.2334,-86.2085,4
US,Pike Road,36064,Alabama,AL,Montgomery,101,,,32.3357,-86.0959,4
US,Pine Level,36065,Alabama,AL,Montgomery,101,,,32.0726,-86.0606,4
US,Ramer,36069,Alabama,AL,Montgomery,101,,,32.0677,-86.2463,4
US,Montgomery,36101,Alabama,AL,Montgomery,101,,,32.357,-86.2578,4
US,Montgomery,36102,Alabama,AL,Montgomery,101,,,32.2334,-86.2085,4
US,Montgomery,36103,Alabama,AL,Montgomery,101,,,32.3462,-86.2873,4
US,Montgomery,36104,Alabama,AL,Montgomery,101,,,32.373,-86.3081,4
US,Montgomery,36105,Alabama,AL,Montgomery,101,,,32.3257,-86.3104,4
US,Montgomery,36106,Alabama,AL,Montgomery,101,,,32.3543,-86.2673,4
US,Montgomery,36107,Alabama,AL,Montgomery,101,,,32.3804,-86.2799,4
US,Montgomery,36108,Alabama,AL,Montgomery,101,,,32.3417,-86.3529,4
US,Montgomery,36109,Alabama,AL,Montgomery,101,,,32.3834,-86.2434,4
US,Montgomery,36110,Alabama,AL,Montgomery,101,,,32.4217,-86.275,4
US,Montgomery,36111,Alabama,AL,Montgomery,101,,,32.3374,-86.2715,4
US,Montgomery,36112,Alabama,AL,Montgomery,101,,,32.3808,-86.3491,4
US,Montgomery,36113,Alabama,AL,Montgomery,101,,,32.3846,-86.3039,4
US,Montgomery,36114,Alabama,AL,Montgomery,101,,,32.404,-86.2539,4
US,Montgomery,36115,Alabama,AL,Montgomery,101,,,32.4076,-86.2474,4
US,Montgomery,36116,Alabama,AL,Montgomery,101,,,32.3129,-86.2421,4
US,Montgomery,36117,Alabama,AL,Montgomery,101,,,32.3736,-86.1833,4
US,Montgomery,36118,Alabama,AL,Montgomery,101,,,32.2334,-86.2085,4
US,Montgomery,36119,Alabama,AL,Montgomery,101,,,32.2334,-86.2085,4
US,Montgomery,36120,Alabama,AL,Montgomery,101,,,32.2334,-86.2085,4
US,Montgomery,36121,Alabama,AL,Montgomery,101,,,32.2334,-86.2085,4
US,Montgomery,36123,Alabama,AL,Montgomery,101,,,32.3668,-86.3,4
US,Montgomery,36124,Alabama,AL,Montgomery,101,,,32.2334,-86.2085,4
US,Montgomery,36125,Alabama,AL,Montgomery,101,,,32.2334,-86.2085,4
US,Montgomery,36130,Alabama,AL,Montgomery,101,,,32.2334,-86.2085,4
US,Montgomery,36131,Alabama,AL,Montgomery,101,,,32.2334,-86.2085,4
US,Montgomery,36132,Alabama,AL,Montgomery,101,,,32.2334,-86.2085,4
US,Montgomery,36135,Alabama,AL,Montgomery,101,,,32.2334,-86.2085,4
US,Montgomery,36140,Alabama,AL,Montgomery,101,,,32.2334,-86.2085,4
US,Montgomery,36141,Alabama,AL,Montgomery,101,,,32.2334,-86.2085,4
US,Montgomery,36142,Alabama,AL,Montgomery,101,,,32.2334,-86.2085,4
US,Montgomery,36177,Alabama,AL,Montgomery,101,,,32.2334,-86.2085,4
US,Montgomery,36191,Alabama,AL,Montgomery,101,,,32.2334,-86.2085,4
US,Decatur,35601,Alabama,AL,Morgan,103,,,34.5896,-86.9887,4
US,Decatur,35602,Alabama,AL,Morgan,103,,,34.6059,-86.9833,4
US,Decatur,35603,Alabama,AL,Morgan,103,,,34.5484,-87.0004,4
US,Decatur,35609,Alabama,AL,Morgan,103,,,34.6059,-86.9833,4
US,Danville,35619,Alabama,AL,Morgan,103,,,34.3873,-87.1454,4
US,Eva,35621,Alabama,AL,Morgan,103,,,34.3323,-86.7589,4
US,Falkville,35622,Alabama,AL,Morgan,103,,,34.3477,-86.9131,4
US,Hartselle,35640,Alabama,AL,Morgan,103,,,34.4482,-86.9242,4
US,Somerville,35670,Alabama,AL,Morgan,103,,,34.4995,-86.8009,4
US,Trinity,35673,Alabama,AL,Morgan,103,,,34.5918,-87.0913,4
US,Decatur,35699,Alabama,AL,Morgan,103,,,34.6059,-86.9833,4
US,Laceys Spring,35754,Alabama,AL,Morgan,103,,,34.4996,-86.6129,4
US,Valhermoso Springs,35775,Alabama,AL,Morgan,103,,,34.542,-86.6871,4
US,Marion,36756,Alabama,AL,Perry,105,,,32.6463,-87.3314,4
US,Uniontown,36786,Alabama,AL,Perry,105,,,32.447,-87.4934,4
US,Aliceville,35442,Alabama,AL,Pickens,107,,,33.1228,-88.1667,4
US,Carrollton,35447,Alabama,AL,Pickens,107,,,33.2485,-88.1321,4
US,Ethelsville,35461,Alabama,AL,Pickens,107,,,33.4157,-88.2167,4
US,Gordo,35466,Alabama,AL,Pickens,107,,,33.3469,-87.9005,4
US,Mc Shan,35471,Alabama,AL,Pickens,107,,,33.2626,-88.0885,1
US,Reform,35481,Alabama,AL,Pickens,107,,,33.3959,-88.0203,4
US,Banks,36005,Alabama,AL,Pike,109,,,31.8368,-85.7998,4
US,Brundidge,36010,Alabama,AL,Pike,109,,,31.7013,-85.8177,4
US,Goshen,36035,Alabama,AL,Pike,109,,,31.7946,-86.1277,4
US,Troy,36079,Alabama,AL,Pike,109,,,31.7595,-86.0107,4
US,Troy,36081,Alabama,AL,Pike,109,,,31.7945,-85.9655,4
US,Troy,36082,Alabama,AL,Pike,109,,,31.8028,-85.9546,4
US,Graham,36263,Alabama,AL,Randolph,111,,,33.463,-85.334,4
US,Roanoke,36274,Alabama,AL,Randolph,111,,,33.1512,-85.3722,4
US,Wadley,36276,Alabama,AL,Randolph,111,,,33.1492,-85.5513,4
US,Wedowee,36278,Alabama,AL,Randolph,111,,,33.3019,-85.4737,4
US,Woodland,36280,Alabama,AL,Randolph,111,,,33.3743,-85.3997,4
US,Cottonton,36851,Alabama,AL,Russell,113,,,32.1468,-85.0738,4
US,Fort Mitchell,36856,Alabama,AL,Russell,113,,,32.2965,-84.9972,4
US,Hatchechubbee,36858,Alabama,AL,Russell,113,,,32.2845,-85.3029,4
US,Holy Trinity,36859,Alabama,AL,Russell,113,,,32.2298,-85.0082,4
US,Hurtsboro,36860,Alabama,AL,Russell,113,,,32.2454,-85.3959,4
US,Phenix City,36867,Alabama,AL,Russell,113,,,32.4978,-85.0234,4
US,Phenix City,36868,Alabama,AL,Russell,113,,,32.4646,-85.0206,4
US,Phenix City,36869,Alabama,AL,Russell,113,,,32.4204,-85.0796,4
US,Phenix City,36870,Alabama,AL,Russell,113,,,32.4781,-85.124,4
US,Pittsview,36871,Alabama,AL,Russell,113,,,32.1733,-85.1312,4
US,Seale,36875,Alabama,AL,Russell,113,,,32.3053,-85.1677,4
US,Moody,35004,Alabama,AL,St. Clair,115,,,33.6035,-86.4668,4
US,Cook Springs,35052,Alabama,AL,St. Clair,115,,,33.5895,-86.3923,4
US,Cropwell,35054,Alabama,AL,St. Clair,115,,,33.5296,-86.3007,4
US,Margaret,35112,Alabama,AL,St. Clair,115,,,33.6862,-86.475,4
US,Odenville,35120,Alabama,AL,St. Clair,115,,,33.6756,-86.409,4
US,Pell City,35125,Alabama,AL,St. Clair,115,,,33.5979,-86.3432,4
US,Pell City,35128,Alabama,AL,St. Clair,115,,,33.5873,-86.3366,4
US,Ragland,35131,Alabama,AL,St. Clair,115,,,33.7367,-86.1619,4
US,Riverside,35135,Alabama,AL,St. Clair,115,,,33.6166,-86.1996,4
US,Springville,35146,Alabama,AL,St. Clair,115,,,33.7386,-86.4394,4
US,Wattsville,35182,Alabama,AL,St. Clair,115,,,33.7068,-86.2567,4
US,Ashville,35953,Alabama,AL,St. Clair,115,,,33.8374,-86.2552,4
US,Steele,35987,Alabama,AL,St. Clair,115,,,33.9417,-86.2289,4
US,Alabaster,35007,Alabama,AL,Shelby,117,,,33.1934,-86.7944,4
US,Calera,35040,Alabama,AL,Shelby,117,,,33.1098,-86.756,4
US,Chelsea,35043,Alabama,AL,Shelby,117,,,33.2982,-86.6563,4
US,Columbiana,35051,Alabama,AL,Shelby,117,,,33.177,-86.6161,4
US,Harpersville,35078,Alabama,AL,Shelby,117,,,33.3234,-86.4424,4
US,Helena,35080,Alabama,AL,Shelby,117,,,33.2663,-86.902,4
US,Maylene,35114,Alabama,AL,Shelby,117,,,33.2317,-86.8727,4
US,Montevallo,35115,Alabama,AL,Shelby,117,,,33.1248,-86.8622,4
US,Pelham,35124,Alabama,AL,Shelby,117,,,33.2932,-86.768,4
US,Saginaw,35137,Alabama,AL,Shelby,117,,,33.2063,-86.7812,4
US,Shelby,35143,Alabama,AL,Shelby,117,,,33.0785,-86.5536,4
US,Siluria,35144,Alabama,AL,Shelby,117,,,33.2293,-86.825,4
US,Sterrett,35147,Alabama,AL,Shelby,117,,,33.4461,-86.4917,4
US,Vandiver,35176,Alabama,AL,Shelby,117,,,33.4807,-86.5013,4
US,Vincent,35178,Alabama,AL,Shelby,117,,,33.401,-86.3994,4
US,Westover,35185,Alabama,AL,Shelby,117,,,33.3356,-86.5437,4
US,Wilsonville,35186,Alabama,AL,Shelby,117,,,33.2293,-86.5299,4
US,Wilton,35187,Alabama,AL,Shelby,117,,,33.081,-86.8793,4
US,Birmingham,35242,Alabama,AL,Shelby,117,,,33.3813,-86.7046,4
US,Emelle,35459,Alabama,AL,Sumter,119,,,32.755,-88.3057,4
US,Epes,35460,Alabama,AL,Sumter,119,,,32.672,-88.1206,4
US,Gainesville,35464,Alabama,AL,Sumter,119,,,32.821,-88.1589,4
US,Livingston,35470,Alabama,AL,Sumter,119,,,32.5843,-88.1872,4
US,Panola,35477,Alabama,AL,Sumter,119,,,32.8726,-88.2374,4
US,Bellamy,36901,Alabama,AL,Sumter,119,,,32.449,-88.1336,4
US,Cuba,36907,Alabama,AL,Sumter,119,,,32.411,-88.3611,4
US,York,36925,Alabama,AL,Sumter,119,,,32.4728,-88.2683,4
US,Alpine,35014,Alabama,AL,Talladega,121,,,33.404,-86.2339,4
US,Bon Air,35032,Alabama,AL,Talladega,121,,,33.2649,-86.3364,4
US,Childersburg,35044,Alabama,AL,Talladega,121,,,33.2459,-86.3641,4
US,Lincoln,35096,Alabama,AL,Talladega,121,,,33.6059,-86.1112,4
US,Sycamore,35149,Alabama,AL,Talladega,121,,,33.2512,-86.2025,4
US,Sylacauga,35150,Alabama,AL,Talladega,121,,,33.1717,-86.2713,4
US,Sylacauga,35151,Alabama,AL,Talladega,121,,,33.1756,-86.3574,4
US,Talladega,35160,Alabama,AL,Talladega,121,,,33.4354,-86.1134,4
US,Talladega,35161,Alabama,AL,Talladega,121,,,33.4202,-86.1028,4
US,Munford,36268,Alabama,AL,Talladega,121,,,33.541,-85.9363,4
US,Alexander City,35010,Alabama,AL,Tallapoosa,123,,,32.9164,-85.9368,4
US,Alexander City,35011,Alabama,AL,Tallapoosa,123,,,32.9902,-85.958,4
US,East Tallassee,36023,Alabama,AL,Tallapoosa,123,,,32.8002,-85.8034,1
US,Daviston,36256,Alabama,AL,Tallapoosa,123,,,33.0335,-85.7538,4
US,Camp Hill,36850,Alabama,AL,Tallapoosa,123,,,32.7827,-85.6474,4
US,Dadeville,36853,Alabama,AL,Tallapoosa,123,,,32.8224,-85.7704,4
US,Jacksons Gap,36861,Alabama,AL,Tallapoosa,123,,,32.8797,-85.8487,4
US,Tuscaloosa,35401,Alabama,AL,Tuscaloosa,125,,,33.1969,-87.5627,4
US,Tuscaloosa,35402,Alabama,AL,Tuscaloosa,125,,,33.3066,-87.4532,4
US,Tuscaloosa,35403,Alabama,AL,Tuscaloosa,125,,,33.2045,-87.527,4
US,Tuscaloosa,35404,Alabama,AL,Tuscaloosa,125,,,33.1826,-87.4827,4
US,Tuscaloosa,35405,Alabama,AL,Tuscaloosa,125,,,33.1617,-87.5144,4
US,Tuscaloosa,35406,Alabama,AL,Tuscaloosa,125,,,33.2722,-87.536,4
US,Tuscaloosa,35407,Alabama,AL,Tuscaloosa,125,,,33.3066,-87.4532,4
US,Abernant,35440,Alabama,AL,Tuscaloosa,125,,,33.311,-87.1898,4
US,Brookwood,35444,Alabama,AL,Tuscaloosa,125,,,33.2775,-87.309,4
US,Buhl,35446,Alabama,AL,Tuscaloosa,125,,,33.2306,-87.7547,4
US,Coaling,35449,Alabama,AL,Tuscaloosa,125,,,33.1359,-87.3384,4
US,Coker,35452,Alabama,AL,Tuscaloosa,125,,,33.2934,-87.6888,4
US,Cottondale,35453,Alabama,AL,Tuscaloosa,125,,,33.1767,-87.3871,4
US,Duncanville,35456,Alabama,AL,Tuscaloosa,125,,,33.0618,-87.4422,4
US,Echola,35457,Alabama,AL,Tuscaloosa,125,,,33.294,-87.7766,4
US,Elrod,35458,Alabama,AL,Tuscaloosa,125,,,33.2562,-87.7922,4
US,Fosters,35463,Alabama,AL,Tuscaloosa,125,,,33.0843,-87.6975,4
US,Kellerman,35468,Alabama,AL,Tuscaloosa,125,,,33.3407,-87.3047,4
US,Northport,35473,Alabama,AL,Tuscaloosa,125,,,33.2723,-87.5825,4
US,Northport,35475,Alabama,AL,Tuscaloosa,125,,,33.3992,-87.5599,4
US,Northport,35476,Alabama,AL,Tuscaloosa,125,,,33.2273,-87.5943,4
US,Peterson,35478,Alabama,AL,Tuscaloosa,125,,,33.3066,-87.4532,4
US,Ralph,35480,Alabama,AL,Tuscaloosa,125,,,33.1274,-87.7624,4
US,Samantha,35482,Alabama,AL,Tuscaloosa,125,,,33.3066,-87.4532,4
US,Tuscaloosa,35486,Alabama,AL,Tuscaloosa,125,,,33.2098,-87.5692,4
US,Tuscaloosa,35487,Alabama,AL,Tuscaloosa,125,,,33.3072,-87.5859,4
US,Vance,35490,Alabama,AL,Tuscaloosa,125,,,33.175,-87.2574,4
US,Burnwell,35038,Alabama,AL,Walker,127,,,33.7079,-87.0875,4
US,Dora,35062,Alabama,AL,Walker,127,,,33.7357,-87.0546,4
US,Empire,35063,Alabama,AL,Walker,127,,,33.8256,-87.0161,4
US,Quinton,35130,Alabama,AL,Walker,127,,,33.6561,-87.1007,4
US,Sumiton,35148,Alabama,AL,Walker,127,,,33.768,-87.0445,4
US,Jasper,35501,Alabama,AL,Walker,127,,,33.8312,-87.2775,4
US,Jasper,35502,Alabama,AL,Walker,127,,,33.8312,-87.2775,4
US,Jasper,35503,Alabama,AL,Walker,127,,,33.9152,-87.3074,4
US,Jasper,35504,Alabama,AL,Walker,127,,,33.8927,-87.1667,4
US,Carbon Hill,35549,Alabama,AL,Walker,127,,,33.9093,-87.5403,4
US,Cordova,35550,Alabama,AL,Walker,127,,,33.768,-87.1841,4
US,Eldridge,35554,Alabama,AL,Walker,127,,,33.9315,-87.6194,4
US,Goodsprings,35560,Alabama,AL,Walker,127,,,33.6795,-87.2374,4
US,Kansas,35573,Alabama,AL,Walker,127,,,33.9018,-87.552,4
US,Nauvoo,35578,Alabama,AL,Walker,127,,,33.9299,-87.4324,4
US,Oakman,35579,Alabama,AL,Walker,127,,,33.7002,-87.3686,4
US,Parrish,35580,Alabama,AL,Walker,127,,,33.7213,-87.2658,4
US,Sipsey,35584,Alabama,AL,Walker,127,,,33.8201,-87.0779,4
US,Townley,35587,Alabama,AL,Walker,127,,,33.847,-87.4372,4
US,Calvert,36513,Alabama,AL,Washington,129,,,31.1552,-88.01,4
US,Chatom,36518,Alabama,AL,Washington,129,,,31.4876,-88.2699,4
US,Deer Park,36529,Alabama,AL,Washington,129,,,31.2168,-88.3172,4
US,Frankville,36538,Alabama,AL,Washington,129,,,31.6468,-88.1332,4
US,Fruitdale,36539,Alabama,AL,Washington,129,,,31.3488,-88.3766,4
US,Leroy,36548,Alabama,AL,Washington,129,,,31.491,-87.9687,4
US,Mc Intosh,36553,Alabama,AL,Washington,129,,,31.2361,-88.0511,1
US,Malcolm,36556,Alabama,AL,Washington,129,,,31.1913,-88.0075,4
US,Millry,36558,Alabama,AL,Washington,129,,,31.6269,-88.3559,4
US,Saint Stephens,36569,Alabama,AL,Washington,129,,,31.533,-88.0521,4
US,Sunflower,36581,Alabama,AL,Washington,129,,,31.3696,-88.0122,4
US,Tibbie,36583,Alabama,AL,Washington,129,,,31.4067,-88.1758,4
US,Vinegar Bend,36584,Alabama,AL,Washington,129,,,31.2584,-88.3865,4
US,Wagarville,36585,Alabama,AL,Washington,129,,,31.4102,-88.0705,4
US,Coy,36435,Alabama,AL,Wilcox,131,,,31.8889,-87.3926,4
US,Alberta,36720,Alabama,AL,Wilcox,131,,,32.1585,-87.3468,4
US,Arlington,36722,Alabama,AL,Wilcox,131,,,32.0668,-87.5597,4
US,Boykin,36723,Alabama,AL,Wilcox,131,,,32.0779,-87.2814,4
US,Camden,36726,Alabama,AL,Wilcox,131,,,32.0047,-87.295,4
US,Catherine,36728,Alabama,AL,Wilcox,131,,,32.182,-87.4836,4
US,Furman,36741,Alabama,AL,Wilcox,131,,,32.0061,-86.9817,4
US,Lower Peach Tree,36751,Alabama,AL,Wilcox,131,,,31.8504,-87.5682,4
US,Mc Williams,36753,Alabama,AL,Wilcox,131,,,32.0481,-87.2623,1
US,Oak Hill,36766,Alabama,AL,Wilcox,131,,,31.947,-87.0745,4
US,Pine Apple,36768,Alabama,AL,Wilcox,131,,,31.9265,-87.0047,4
US,Pine Hill,36769,Alabama,AL,Wilcox,131,,,31.9735,-87.5771,4
US,Addison,35540,Alabama,AL,Winston,133,,,34.2056,-87.1948,4
US,Arley,35541,Alabama,AL,Winston,133,,,34.0632,-87.1828,4
US,Delmar,35551,Alabama,AL,Winston,133,,,34.1701,-87.6059,4
US,Double Springs,35553,Alabama,AL,Winston,133,,,34.1387,-87.3974,4
US,Haleyville,35565,Alabama,AL,Winston,133,,,34.2314,-87.5938,4
US,Houston,35572,Alabama,AL,Winston,133,,,34.118,-87.2618,4
US,Lynn,35575,Alabama,AL,Winston,133,,,34.053,-87.5398,4
US,Natural Bridge,35577,Alabama,AL,Winston,133,,,34.0934,-87.6008,4
US,Almyra,72003,Arkansas,AR,Arkansas,1,,,34.4146,-91.431,4
US,Casscoe,72026,Arkansas,AR,Arkansas,1,,,34.5095,-91.299,4
US,Crocketts Bluff,72038,Arkansas,AR,Arkansas,1,,,34.4528,-91.2692,4
US,De Witt,72042,Arkansas,AR,Arkansas,1,,,34.2853,-91.3336,4
US,Ethel,72048,Arkansas,AR,Arkansas,1,,,34.2435,-91.1398,4
US,Gillett,72055,Arkansas,AR,Arkansas,1,,,34.1218,-91.38,4
US,Humphrey,72073,Arkansas,AR,Arkansas,1,,,34.4034,-91.679,4
US,Saint Charles,72140,Arkansas,AR,Arkansas,1,,,34.3878,-91.1463,4
US,Stuttgart,72160,Arkansas,AR,Arkansas,1,,,34.4854,-91.5487,4
US,Tichnor,72166,Arkansas,AR,Arkansas,1,,,34.0893,-91.2437,4
US,Crossett,71635,Arkansas,AR,Ashley,3,,,33.156,-91.9975,4
US,Fountain Hill,71642,Arkansas,AR,Ashley,3,,,33.3631,-91.9088,4
US,Hamburg,71646,Arkansas,AR,Ashley,3,,,33.2058,-91.8023,4
US,Montrose,71658,Arkansas,AR,Ashley,3,,,33.3075,-91.5228,4
US,Parkdale,71661,Arkansas,AR,Ashley,3,,,33.1213,-91.5428,4
US,Portland,71663,Arkansas,AR,Ashley,3,,,33.2318,-91.5139,4
US,Wilmot,71676,Arkansas,AR,Ashley,3,,,33.0576,-91.5723,4
US,Gamaliel,72537,Arkansas,AR,Baxter,5,,,36.4618,-92.2284,4
US,Henderson,72544,Arkansas,AR,Baxter,5,,,36.4105,-92.1951,4
US,Big Flat,72617,Arkansas,AR,Baxter,5,,,36.0068,-92.3917,4
US,Clarkridge,72623,Arkansas,AR,Baxter,5,,,36.4724,-92.3296,4
US,Cotter,72626,Arkansas,AR,Baxter,5,,,36.2712,-92.5354,4
US,Gassville,72635,Arkansas,AR,Baxter,5,,,36.3175,-92.4736,4
US,Lakeview,72642,Arkansas,AR,Baxter,5,,,36.373,-92.5422,4
US,Midway,72651,Arkansas,AR,Baxter,5,,,36.3933,-92.4881,4
US,Mountain Home,72653,Arkansas,AR,Baxter,5,,,36.3312,-92.3753,4
US,Mountain Home,72654,Arkansas,AR,Baxter,5,,,36.3353,-92.3852,4
US,Norfork,72658,Arkansas,AR,Baxter,5,,,36.2066,-92.273,4
US,Norfork,72659,Arkansas,AR,Baxter,5,,,36.2095,-92.2843,4
US,Avoca,72711,Arkansas,AR,Benton,7,,,36.4047,-94.0713,4
US,Bentonville,72712,Arkansas,AR,Benton,7,,,36.3577,-94.2224,4
US,Bentonville,72713,Arkansas,AR,Benton,7,,,36.3115,-94.3503,4
US,Bella Vista,72714,Arkansas,AR,Benton,7,,,36.4676,-94.2166,4
US,Bella Vista,72715,Arkansas,AR,Benton,7,,,36.4677,-94.3209,4
US,Bentonville,72716,Arkansas,AR,Benton,7,,,36.3729,-94.2088,4
US,Cave Springs,72718,Arkansas,AR,Benton,7,,,36.2738,-94.2183,4
US,Centerton,72719,Arkansas,AR,Benton,7,,,36.367,-94.3089,4
US,Decatur,72722,Arkansas,AR,Benton,7,,,36.3347,-94.4534,4
US,Garfield,72732,Arkansas,AR,Benton,7,,,36.4288,-93.9512,4
US,Gateway,72733,Arkansas,AR,Benton,7,,,36.4864,-93.9277,4
US,Gentry,72734,Arkansas,AR,Benton,7,,,36.2652,-94.4751,4
US,Gravette,72736,Arkansas,AR,Benton,7,,,36.4155,-94.4779,4
US,Hiwasse,72739,Arkansas,AR,Benton,7,,,36.4416,-94.339,4
US,Lowell,72745,Arkansas,AR,Benton,7,,,36.2554,-94.1308,4
US,Maysville,72747,Arkansas,AR,Benton,7,,,36.3811,-94.5783,4
US,Pea Ridge,72751,Arkansas,AR,Benton,7,,,36.4539,-94.118,4
US,Rogers,72756,Arkansas,AR,Benton,7,,,36.3363,-94.1148,4
US,Rogers,72757,Arkansas,AR,Benton,7,,,36.332,-94.1185,4
US,Rogers,72758,Arkansas,AR,Benton,7,,,36.3169,-94.1545,4
US,Siloam Springs,72761,Arkansas,AR,Benton,7,,,36.18,-94.528,4
US,Sulphur Springs,72768,Arkansas,AR,Benton,7,,,36.4794,-94.4521,4
US,Little Rock,72260,Arkansas,AR,Boone,9,,,34.7399,-92.34,4
US,Harrison,72601,Arkansas,AR,Boone,9,,,36.2417,-93.1062,4
US,Harrison,72602,Arkansas,AR,Boone,9,,,36.2298,-93.1077,4
US,Alpena,72611,Arkansas,AR,Boone,9,,,36.2998,-93.2792,4
US,Bergman,72615,Arkansas,AR,Boone,9,,,36.3083,-93.0321,4
US,Diamond City,72630,Arkansas,AR,Boone,9,,,36.4645,-92.9202,4
US,Everton,72633,Arkansas,AR,Boone,9,,,36.1534,-92.915,4
US,Lead Hill,72644,Arkansas,AR,Boone,9,,,36.3848,-93.0039,4
US,Omaha,72662,Arkansas,AR,Boone,9,,,36.4612,-93.1888,4
US,Valley Springs,72682,Arkansas,AR,Boone,9,,,36.1351,-92.7541,4
US,Banks,71631,Arkansas,AR,Bradley,11,,,33.5497,-92.2604,4
US,Hermitage,71647,Arkansas,AR,Bradley,11,,,33.39,-92.156,4
US,Jersey,71651,Arkansas,AR,Bradley,11,,,33.3889,-92.2966,4
US,Warren,71671,Arkansas,AR,Bradley,11,,,33.614,-92.0778,4
US,Hampton,71744,Arkansas,AR,Calhoun,13,,,33.5376,-92.5295,4
US,Harrell,71745,Arkansas,AR,Calhoun,13,,,33.5101,-92.3988,4
US,Thornton,71766,Arkansas,AR,Calhoun,13,,,33.7768,-92.4862,4
US,Beaver,72613,Arkansas,AR,Carroll,15,,,36.4311,-93.6994,4
US,Berryville,72616,Arkansas,AR,Carroll,15,,,36.3519,-93.5587,4
US,Eureka Springs,72631,Arkansas,AR,Carroll,15,,,36.435,-93.7673,4
US,Eureka Springs,72632,Arkansas,AR,Carroll,15,,,36.4175,-93.7379,4
US,Green Forest,72638,Arkansas,AR,Carroll,15,,,36.3224,-93.4059,4
US,Oak Grove,72660,Arkansas,AR,Carroll,15,,,36.4613,-93.4321,4
US,Dermott,71638,Arkansas,AR,Chicot,17,,,33.5241,-91.4394,4
US,Eudora,71640,Arkansas,AR,Chicot,17,,,33.1213,-91.2716,4
US,Lake Village,71653,Arkansas,AR,Chicot,17,,,33.3274,-91.2825,4
US,Beirne,71721,Arkansas,AR,Clark,19,,,33.8887,-93.2041,4
US,Curtis,71728,Arkansas,AR,Clark,19,,,34.0103,-93.0976,4
US,Gurdon,71743,Arkansas,AR,Clark,19,,,33.9125,-93.1417,4
US,Whelen Springs,71772,Arkansas,AR,Clark,19,,,33.8309,-93.1263,4
US,Alpine,71920,Arkansas,AR,Clark,19,,,34.229,-93.3791,4
US,Amity,71921,Arkansas,AR,Clark,19,,,34.2594,-93.4206,4
US,Arkadelphia,71923,Arkansas,AR,Clark,19,,,34.1153,-93.069,4
US,Okolona,71962,Arkansas,AR,Clark,19,,,34.0551,-93.2897,4
US,Arkadelphia,71998,Arkansas,AR,Clark,19,,,34.1209,-93.0538,4
US,Arkadelphia,71999,Arkansas,AR,Clark,19,,,34.1209,-93.0538,4
US,Corning,72422,Arkansas,AR,Clay,21,,,36.4155,-90.587,4
US,Datto,72424,Arkansas,AR,Clay,21,,,36.3897,-90.7231,4
US,Greenway,72430,Arkansas,AR,Clay,21,,,36.3348,-90.2253,4
US,Knobel,72435,Arkansas,AR,Clay,21,,,36.3176,-90.599,4
US,Mc Dougal,72441,Arkansas,AR,Clay,21,,,36.437,-90.3837,1
US,Peach Orchard,72453,Arkansas,AR,Clay,21,,,36.283,-90.6702,4
US,Piggott,72454,Arkansas,AR,Clay,21,,,36.387,-90.1926,4
US,Pollard,72456,Arkansas,AR,Clay,21,,,36.4317,-90.2751,4
US,Rector,72461,Arkansas,AR,Clay,21,,,36.2672,-90.2702,4
US,Saint Francis,72464,Arkansas,AR,Clay,21,,,36.4534,-90.1454,4
US,Success,72470,Arkansas,AR,Clay,21,,,36.4536,-90.7281,4
US,Edgemont,72044,Arkansas,AR,Cleburne,23,,,35.6321,-92.157,4
US,Higden,72067,Arkansas,AR,Cleburne,23,,,35.5685,-92.1341,4
US,Prim,72130,Arkansas,AR,Cleburne,23,,,35.6674,-92.0933,4
US,Quitman,72131,Arkansas,AR,Cleburne,23,,,35.405,-92.1333,4
US,Wilburn,72179,Arkansas,AR,Cleburne,23,,,35.5106,-91.8648,4
US,Concord,72523,Arkansas,AR,Cleburne,23,,,35.6414,-91.8333,4
US,Drasco,72530,Arkansas,AR,Cleburne,23,,,35.6616,-91.9398,4
US,Heber Springs,72543,Arkansas,AR,Cleburne,23,,,35.5103,-92.0392,4
US,Heber Springs,72545,Arkansas,AR,Cleburne,23,,,35.5352,-92.0213,4
US,Ida,72546,Arkansas,AR,Cleburne,23,,,35.5816,-91.9305,4
US,Tumbling Shoals,72581,Arkansas,AR,Cleburne,23,,,35.547,-91.9704,4
US,Kingsland,71652,Arkansas,AR,Cleveland,25,,,33.86,-92.3014,4
US,New Edinburg,71660,Arkansas,AR,Cleveland,25,,,33.7588,-92.1939,4
US,Rison,71665,Arkansas,AR,Cleveland,25,,,33.9453,-92.1188,4
US,Emerson,71740,Arkansas,AR,Columbia,27,,,33.0891,-93.1987,4
US,Mc Neil,71752,Arkansas,AR,Columbia,27,,,33.3622,-93.193,1
US,Magnolia,71753,Arkansas,AR,Columbia,27,,,33.2647,-93.2392,4
US,Magnolia,71754,Arkansas,AR,Columbia,27,,,33.2426,-93.23,4
US,Waldo,71770,Arkansas,AR,Columbia,27,,,33.36,-93.2949,4
US,Taylor,71861,Arkansas,AR,Columbia,27,,,33.108,-93.446,4
US,Center Ridge,72027,Arkansas,AR,Conway,29,,,35.3981,-92.5582,4
US,Cleveland,72030,Arkansas,AR,Conway,29,,,35.3955,-92.702,4
US,Hattieville,72063,Arkansas,AR,Conway,29,,,35.2907,-92.7783,4
US,Jerusalem,72080,Arkansas,AR,Conway,29,,,35.5699,-92.8251,4
US,Menifee,72107,Arkansas,AR,Conway,29,,,35.1356,-92.5498,4
US,Morrilton,72110,Arkansas,AR,Conway,29,,,35.1692,-92.7354,4
US,Plumerville,72127,Arkansas,AR,Conway,29,,,35.1575,-92.6204,4
US,Solgohachia,72156,Arkansas,AR,Conway,29,,,35.2701,-92.6754,4
US,Springfield,72157,Arkansas,AR,Conway,29,,,35.2749,-92.5457,4
US,Jonesboro,72401,Arkansas,AR,Craighead,31,,,35.833,-90.6965,4
US,Jonesboro,72402,Arkansas,AR,Craighead,31,,,35.8088,-90.6529,4
US,Jonesboro,72403,Arkansas,AR,Craighead,31,,,35.8305,-90.7039,4
US,Jonesboro,72404,Arkansas,AR,Craighead,31,,,35.7792,-90.766,4
US,Bay,72411,Arkansas,AR,Craighead,31,,,35.7456,-90.5507,4
US,Black Oak,72414,Arkansas,AR,Craighead,31,,,35.8368,-90.4005,4
US,Bono,72416,Arkansas,AR,Craighead,31,,,35.9086,-90.7848,4
US,Brookland,72417,Arkansas,AR,Craighead,31,,,35.9165,-90.5762,4
US,Caraway,72419,Arkansas,AR,Craighead,31,,,35.759,-90.3358,4
US,Cash,72421,Arkansas,AR,Craighead,31,,,35.8301,-90.941,4
US,Egypt,72427,Arkansas,AR,Craighead,31,,,35.864,-90.9428,4
US,Lake City,72437,Arkansas,AR,Craighead,31,,,35.8171,-90.4423,4
US,Monette,72447,Arkansas,AR,Craighead,31,,,35.9002,-90.3437,4
US,State University,72467,Arkansas,AR,Craighead,31,,,35.8422,-90.6735,4
US,Alma,72921,Arkansas,AR,Crawford,33,,,35.5,-94.2073,4
US,Cedarville,72932,Arkansas,AR,Crawford,33,,,35.603,-94.3749,4
US,Chester,72934,Arkansas,AR,Crawford,33,,,35.6898,-94.202,4
US,Dyer,72935,Arkansas,AR,Crawford,33,,,35.4923,-94.1377,4
US,Mountainburg,72946,Arkansas,AR,Crawford,33,,,35.6464,-94.1497,4
US,Mulberry,72947,Arkansas,AR,Crawford,33,,,35.5172,-93.9885,4
US,Natural Dam,72948,Arkansas,AR,Crawford,33,,,35.6743,-94.4124,4
US,Rudy,72952,Arkansas,AR,Crawford,33,,,35.5468,-94.2913,4
US,Uniontown,72955,Arkansas,AR,Crawford,33,,,35.5748,-94.4349,4
US,Van Buren,72956,Arkansas,AR,Crawford,33,,,35.454,-94.3278,4
US,Van Buren,72957,Arkansas,AR,Crawford,33,,,35.4368,-94.3483,4
US,West Memphis,72301,Arkansas,AR,Crittenden,35,,,35.1484,-90.1779,4
US,West Memphis,72303,Arkansas,AR,Crittenden,35,,,35.1465,-90.1845,4
US,Clarkedale,72325,Arkansas,AR,Crittenden,35,,,35.3093,-90.2362,4
US,Crawfordsville,72327,Arkansas,AR,Crittenden,35,,,35.2119,-90.3351,4
US,Earle,72331,Arkansas,AR,Crittenden,35,,,35.2799,-90.4503,4
US,Edmondson,72332,Arkansas,AR,Crittenden,35,,,35.1042,-90.3133,4
US,Gilmore,72339,Arkansas,AR,Crittenden,35,,,35.4057,-90.2714,4
US,Marion,72364,Arkansas,AR,Crittenden,35,,,35.2077,-90.1989,4
US,Proctor,72376,Arkansas,AR,Crittenden,35,,,35.0834,-90.255,4
US,Turrell,72384,Arkansas,AR,Crittenden,35,,,35.3439,-90.2978,4
US,Cherry Valley,72324,Arkansas,AR,Cross,37,,,35.3991,-90.7613,4
US,Hickory Ridge,72347,Arkansas,AR,Cross,37,,,35.3995,-90.9823,4
US,Parkin,72373,Arkansas,AR,Cross,37,,,35.2586,-90.5564,4
US,Vanndale,72387,Arkansas,AR,Cross,37,,,35.3245,-90.7712,4
US,Wynne,72396,Arkansas,AR,Cross,37,,,35.233,-90.793,4
US,Carthage,71725,Arkansas,AR,Dallas,39,,,34.0751,-92.5554,4
US,Fordyce,71742,Arkansas,AR,Dallas,39,,,33.8176,-92.4225,4
US,Ivan,71748,Arkansas,AR,Dallas,39,,,33.9118,-92.4246,4
US,Sparkman,71763,Arkansas,AR,Dallas,39,,,33.9143,-92.8532,4
US,Arkansas City,71630,Arkansas,AR,Desha,41,,,33.6143,-91.2325,4
US,Dumas,71639,Arkansas,AR,Desha,41,,,33.8921,-91.4861,4
US,Mc Gehee,71654,Arkansas,AR,Desha,41,,,33.6297,-91.3928,1
US,Pickens,71662,Arkansas,AR,Desha,41,,,33.842,-91.5022,4
US,Rohwer,71666,Arkansas,AR,Desha,41,,,33.7609,-91.2757,4
US,Tillar,71670,Arkansas,AR,Desha,41,,,33.6981,-91.4433,4
US,Watson,71674,Arkansas,AR,Desha,41,,,33.8907,-91.2815,4
US,Snow Lake,72379,Arkansas,AR,Desha,41,,,34.0665,-91.0071,4
US,Monticello,71655,Arkansas,AR,Drew,43,,,33.625,-91.7948,4
US,Monticello,71656,Arkansas,AR,Drew,43,,,33.629,-91.791,4
US,Monticello,71657,Arkansas,AR,Drew,43,,,33.629,-91.791,4
US,Wilmar,71675,Arkansas,AR,Drew,43,,,33.6213,-91.9257,4
US,Winchester,71677,Arkansas,AR,Drew,43,,,33.7471,-91.4649,4
US,Conway,72032,Arkansas,AR,Faulkner,45,,,35.0842,-92.4236,4
US,Conway,72033,Arkansas,AR,Faulkner,45,,,35.1053,-92.3549,4
US,Conway,72034,Arkansas,AR,Faulkner,45,,,35.0823,-92.4683,4
US,Conway,72035,Arkansas,AR,Faulkner,45,,,35.1053,-92.3549,4
US,Damascus,72039,Arkansas,AR,Faulkner,45,,,35.3673,-92.4096,4
US,Enola,72047,Arkansas,AR,Faulkner,45,,,35.2087,-92.2123,4
US,Greenbrier,72058,Arkansas,AR,Faulkner,45,,,35.2295,-92.3578,4
US,Guy,72061,Arkansas,AR,Faulkner,45,,,35.3239,-92.2878,4
US,Mayflower,72106,Arkansas,AR,Faulkner,45,,,34.9669,-92.4001,4
US,Mount Vernon,72111,Arkansas,AR,Faulkner,45,,,35.2265,-92.124,4
US,Vilonia,72173,Arkansas,AR,Faulkner,45,,,35.0719,-92.1832,4
US,Wooster,72181,Arkansas,AR,Faulkner,45,,,35.1645,-92.453,4
US,Alix,72820,Arkansas,AR,Franklin,47,,,35.41,-93.7286,4
US,Altus,72821,Arkansas,AR,Franklin,47,,,35.4346,-93.7598,4
US,Branch,72928,Arkansas,AR,Franklin,47,,,35.2971,-93.9454,4
US,Cecil,72930,Arkansas,AR,Franklin,47,,,35.4252,-94.0409,4
US,Charleston,72933,Arkansas,AR,Franklin,47,,,35.3115,-94.0337,4
US,Ozark,72949,Arkansas,AR,Franklin,47,,,35.5246,-93.8374,4
US,Bexar,72515,Arkansas,AR,Fulton,49,,,36.2901,-92.055,4
US,Camp,72520,Arkansas,AR,Fulton,49,,,36.4025,-91.7262,4
US,Elizabeth,72531,Arkansas,AR,Fulton,49,,,36.3238,-92.0934,4
US,Gepp,72538,Arkansas,AR,Fulton,49,,,36.4364,-92.0995,4
US,Glencoe,72539,Arkansas,AR,Fulton,49,,,36.2942,-91.7474,4
US,Mammoth Spring,72554,Arkansas,AR,Fulton,49,,,36.4076,-91.5757,4
US,Salem,72576,Arkansas,AR,Fulton,49,,,36.3766,-91.8759,4
US,Sturkie,72578,Arkansas,AR,Fulton,49,,,36.4747,-91.8891,4
US,Viola,72583,Arkansas,AR,Fulton,49,,,36.3924,-91.9932,4
US,Hot Springs National Park,71901,Arkansas,AR,Garland,51,,,34.5268,-92.9587,4
US,Hot Springs National Park,71902,Arkansas,AR,Garland,51,,,34.5814,-93.0994,4
US,Hot Springs National Park,71903,Arkansas,AR,Garland,51,,,34.5814,-93.0994,4
US,Hot Springs Village,71909,Arkansas,AR,Garland,51,,,34.6484,-92.983,4
US,Hot Springs Village,71910,Arkansas,AR,Garland,51,,,34.672,-92.9988,4
US,Hot Springs National Park,71913,Arkansas,AR,Garland,51,,,34.5317,-93.0638,4
US,Hot Springs National Park,71914,Arkansas,AR,Garland,51,,,34.5137,-92.9685,4
US,Jessieville,71949,Arkansas,AR,Garland,51,,,34.7094,-93.0382,4
US,Mountain Pine,71956,Arkansas,AR,Garland,51,,,34.5976,-93.1539,4
US,Pearcy,71964,Arkansas,AR,Garland,51,,,34.4351,-93.242,4
US,Royal,71968,Arkansas,AR,Garland,51,,,34.515,-93.2897,4
US,Lonsdale,72087,Arkansas,AR,Garland,51,,,34.5562,-92.834,4
US,Grapevine,72057,Arkansas,AR,Grant,53,,,34.1309,-92.3109,4
US,Leola,72084,Arkansas,AR,Grant,53,,,34.1856,-92.5979,4
US,Poyen,72128,Arkansas,AR,Grant,53,,,34.3023,-92.6095,4
US,Prattsville,72129,Arkansas,AR,Grant,53,,,34.3079,-92.5131,4
US,Sheridan,72150,Arkansas,AR,Grant,53,,,34.3165,-92.3657,4
US,Beech Grove,72412,Arkansas,AR,Greene,55,,,36.1281,-90.6914,4
US,Delaplaine,72425,Arkansas,AR,Greene,55,,,36.1995,-90.7345,4
US,Lafe,72436,Arkansas,AR,Greene,55,,,36.2359,-90.4811,4
US,Marmaduke,72443,Arkansas,AR,Greene,55,,,36.1951,-90.3837,4
US,Paragould,72450,Arkansas,AR,Greene,55,,,36.06,-90.5251,4
US,Paragould,72451,Arkansas,AR,Greene,55,,,36.0584,-90.4973,4
US,Walcott,72474,Arkansas,AR,Greene,55,,,36.0413,-90.6718,4
US,Hope,71801,Arkansas,AR,Hempstead,57,,,33.6736,-93.6068,4
US,Hope,71802,Arkansas,AR,Hempstead,57,,,33.6671,-93.5916,4
US,Blevins,71825,Arkansas,AR,Hempstead,57,,,33.8718,-93.5771,4
US,Columbus,71831,Arkansas,AR,Hempstead,57,,,33.7935,-93.807,4
US,Fulton,71838,Arkansas,AR,Hempstead,57,,,33.6299,-93.8086,4
US,Mc Caskill,71847,Arkansas,AR,Hempstead,57,,,33.923,-93.6266,1
US,Ozan,71855,Arkansas,AR,Hempstead,57,,,33.9028,-93.7714,4
US,Washington,71862,Arkansas,AR,Hempstead,57,,,33.7546,-93.6735,4
US,Bismarck,71929,Arkansas,AR,Hot Spring,59,,,34.311,-93.1872,4
US,Bonnerdale,71933,Arkansas,AR,Hot Spring,59,,,34.3848,-93.3819,4
US,Donaldson,71941,Arkansas,AR,Hot Spring,59,,,34.2212,-92.9094,4
US,Friendship,71942,Arkansas,AR,Hot Spring,59,,,34.2235,-93.0024,4
US,Benton,72019,Arkansas,AR,Hot Spring,59,,,34.604,-92.6259,4
US,Malvern,72104,Arkansas,AR,Hot Spring,59,,,34.3557,-92.8292,4
US,Jones Mill,72105,Arkansas,AR,Hot Spring,59,,,34.4374,-92.8943,1
US,Dierks,71833,Arkansas,AR,Howard,61,,,34.1323,-94.0152,4
US,Mineral Springs,71851,Arkansas,AR,Howard,61,,,33.8639,-93.9188,4
US,Nashville,71852,Arkansas,AR,Howard,61,,,33.9576,-93.8707,4
US,Saratoga,71859,Arkansas,AR,Howard,61,,,33.7599,-93.8767,4
US,Umpire,71971,Arkansas,AR,Howard,61,,,34.2921,-94.0314,4
US,Thida,72165,Arkansas,AR,Independence,63,,,35.5762,-91.4539,4
US,Batesville,72501,Arkansas,AR,Independence,63,,,35.7826,-91.6352,4
US,Batesville,72503,Arkansas,AR,Independence,63,,,35.7346,-91.5343,4
US,Charlotte,72522,Arkansas,AR,Independence,63,,,35.8184,-91.4387,4
US,Cord,72524,Arkansas,AR,Independence,63,,,35.8184,-91.3375,4
US,Cushman,72526,Arkansas,AR,Independence,63,,,35.8729,-91.754,4
US,Desha,72527,Arkansas,AR,Independence,63,,,35.7411,-91.6985,4
US,Floral,72534,Arkansas,AR,Independence,63,,,35.6023,-91.7341,4
US,Locust Grove,72550,Arkansas,AR,Independence,63,,,35.7177,-91.7414,4
US,Magness,72553,Arkansas,AR,Independence,63,,,35.6941,-91.4753,4
US,Newark,72562,Arkansas,AR,Independence,63,,,35.7118,-91.4394,4
US,Oil Trough,72564,Arkansas,AR,Independence,63,,,35.6131,-91.4703,4
US,Pleasant Plains,72568,Arkansas,AR,Independence,63,,,35.5893,-91.632,4
US,Rosie,72571,Arkansas,AR,Independence,63,,,35.6638,-91.534,4
US,Salado,72575,Arkansas,AR,Independence,63,,,35.6919,-91.5989,4
US,Sulphur Rock,72579,Arkansas,AR,Independence,63,,,35.7545,-91.5073,4
US,Horseshoe Bend,72512,Arkansas,AR,Izard,65,,,36.2025,-91.7553,4
US,Brockwell,72517,Arkansas,AR,Izard,65,,,36.1358,-91.9513,4
US,Calico Rock,72519,Arkansas,AR,Izard,65,,,36.1202,-92.1867,4
US,Dolph,72528,Arkansas,AR,Izard,65,,,36.2229,-92.1177,4
US,Franklin,72536,Arkansas,AR,Izard,65,,,36.1703,-91.776,4
US,Guion,72540,Arkansas,AR,Izard,65,,,35.9266,-91.9103,4
US,Melbourne,72556,Arkansas,AR,Izard,65,,,36.0635,-91.9079,4
US,Mount Pleasant,72561,Arkansas,AR,Izard,65,,,35.9759,-91.785,4
US,Oxford,72565,Arkansas,AR,Izard,65,,,36.2114,-91.9258,4
US,Pineville,72566,Arkansas,AR,Izard,65,,,36.1677,-92.1073,4
US,Sage,72573,Arkansas,AR,Izard,65,,,36.0688,-91.791,4
US,Violet Hill,72584,Arkansas,AR,Izard,65,,,36.163,-91.8471,4
US,Wideman,72585,Arkansas,AR,Izard,65,,,36.1865,-92.0088,4
US,Wiseman,72587,Arkansas,AR,Izard,65,,,36.2345,-91.8154,4
US,Amagon,72005,Arkansas,AR,Jackson,67,,,35.562,-91.1104,4
US,Beedeville,72014,Arkansas,AR,Jackson,67,,,35.4291,-91.1057,4
US,Diaz,72043,Arkansas,AR,Jackson,67,,,35.6336,-91.2592,4
US,Jacksonport,72075,Arkansas,AR,Jackson,67,,,35.6414,-91.3072,4
US,Newport,72112,Arkansas,AR,Jackson,67,,,35.5988,-91.2571,4
US,Tupelo,72169,Arkansas,AR,Jackson,67,,,35.3844,-91.2232,4
US,Grubbs,72431,Arkansas,AR,Jackson,67,,,35.6498,-91.074,4
US,Swifton,72471,Arkansas,AR,Jackson,67,,,35.8274,-91.1264,4
US,Tuckerman,72473,Arkansas,AR,Jackson,67,,,35.7307,-91.2003,4
US,Pine Bluff,71601,Arkansas,AR,Jefferson,69,,,34.209,-91.9859,4
US,White Hall,71602,Arkansas,AR,Jefferson,69,,,34.274,-92.091,4
US,Pine Bluff,71603,Arkansas,AR,Jefferson,69,,,34.1897,-92.0448,4
US,Pine Bluff,71611,Arkansas,AR,Jefferson,69,,,34.2615,-91.9551,4
US,White Hall,71612,Arkansas,AR,Jefferson,69,,,34.274,-92.091,4
US,Pine Bluff,71613,Arkansas,AR,Jefferson,69,,,34.1579,-92.0713,4
US,Moscow,71659,Arkansas,AR,Jefferson,69,,,34.1465,-91.7951,4
US,Altheimer,72004,Arkansas,AR,Jefferson,69,,,34.3062,-91.8289,4
US,Jefferson,72079,Arkansas,AR,Jefferson,69,,,34.3934,-92.2029,4
US,Redfield,72132,Arkansas,AR,Jefferson,69,,,34.4526,-92.1758,4
US,Reydell,72133,Arkansas,AR,Jefferson,69,,,34.1715,-91.5656,4
US,Sherrill,72152,Arkansas,AR,Jefferson,69,,,34.3581,-91.9933,4
US,Tucker,72168,Arkansas,AR,Jefferson,69,,,34.4414,-91.9163,4
US,Wabbaseka,72175,Arkansas,AR,Jefferson,69,,,34.3936,-91.7549,4
US,Wright,72182,Arkansas,AR,Jefferson,69,,,34.4291,-92.0599,4
US,Clarksville,72830,Arkansas,AR,Johnson,71,,,35.4908,-93.4911,4
US,Coal Hill,72832,Arkansas,AR,Johnson,71,,,35.4371,-93.672,4
US,Hagarville,72839,Arkansas,AR,Johnson,71,,,35.6155,-93.2726,4
US,Hartman,72840,Arkansas,AR,Johnson,71,,,35.4436,-93.6142,4
US,Knoxville,72845,Arkansas,AR,Johnson,71,,,35.3749,-93.3618,4
US,Lamar,72846,Arkansas,AR,Johnson,71,,,35.4349,-93.3552,4
US,Oark,72852,Arkansas,AR,Johnson,71,,,35.7095,-93.5585,4
US,Ozone,72854,Arkansas,AR,Johnson,71,,,35.6575,-93.4311,4
US,Bradley,71826,Arkansas,AR,Lafayette,73,,,33.107,-93.6275,4
US,Buckner,71827,Arkansas,AR,Lafayette,73,,,33.3753,-93.447,4
US,Garland City,71839,Arkansas,AR,Lafayette,73,,,33.3352,-93.7316,1
US,Lewisville,71845,Arkansas,AR,Lafayette,73,,,33.3736,-93.5953,4
US,Stamps,71860,Arkansas,AR,Lafayette,73,,,33.3569,-93.5013,4
US,Alicia,72410,Arkansas,AR,Lawrence,75,,,35.9423,-91.081,4
US,Black Rock,72415,Arkansas,AR,Lawrence,75,,,36.1149,-91.1176,4
US,Hoxie,72433,Arkansas,AR,Lawrence,75,,,36.0326,-90.9715,4
US,Imboden,72434,Arkansas,AR,Lawrence,75,,,36.1976,-91.1854,4
US,Lynn,72440,Arkansas,AR,Lawrence,75,,,35.9813,-91.2676,4
US,Minturn,72445,Arkansas,AR,Lawrence,75,,,35.9728,-91.0235,4
US,Portia,72457,Arkansas,AR,Lawrence,75,,,36.0865,-91.0673,4
US,Powhatan,72458,Arkansas,AR,Lawrence,75,,,36.08,-91.1482,4
US,Ravenden,72459,Arkansas,AR,Lawrence,75,,,36.2029,-91.2593,4
US,Sedgwick,72465,Arkansas,AR,Lawrence,75,,,35.9643,-90.8954,4
US,Smithville,72466,Arkansas,AR,Lawrence,75,,,36.0908,-91.2745,4
US,Strawberry,72469,Arkansas,AR,Lawrence,75,,,35.9673,-91.2935,4
US,Walnut Ridge,72476,Arkansas,AR,Lawrence,75,,,36.0244,-90.9288,4
US,Saffell,72572,Arkansas,AR,Lawrence,75,,,35.8781,-91.3004,4
US,Aubrey,72311,Arkansas,AR,Lee,77,,,34.7195,-90.8969,4
US,Brickeys,72320,Arkansas,AR,Lee,77,,,34.8548,-90.5377,4
US,Haynes,72341,Arkansas,AR,Lee,77,,,34.8838,-90.7666,4
US,La Grange,72352,Arkansas,AR,Lee,77,,,34.7697,-90.7552,4
US,Marianna,72360,Arkansas,AR,Lee,77,,,34.7759,-90.7785,4
US,Moro,72368,Arkansas,AR,Lee,77,,,34.803,-91.006,4
US,Gould,71643,Arkansas,AR,Lincoln,79,,,34.0345,-91.5768,4
US,Grady,71644,Arkansas,AR,Lincoln,79,,,34.1032,-91.7057,4
US,Star City,71667,Arkansas,AR,Lincoln,79,,,33.9405,-91.8653,4
US,Yorktown,71678,Arkansas,AR,Lincoln,79,,,33.9787,-91.6991,4
US,Alleene,71820,Arkansas,AR,Little River,81,,,33.7944,-94.2681,4
US,Ashdown,71822,Arkansas,AR,Little River,81,,,33.6787,-94.1351,4
US,Foreman,71836,Arkansas,AR,Little River,81,,,33.7176,-94.3881,4
US,Ogden,71853,Arkansas,AR,Little River,81,,,33.5826,-94.0427,4
US,Wilton,71865,Arkansas,AR,Little River,81,,,33.7475,-94.1518,4
US,Winthrop,71866,Arkansas,AR,Little River,81,,,33.8583,-94.3952,4
US,Blue Mountain,72826,Arkansas,AR,Logan,83,,,35.1304,-93.7116,4
US,Delaware,72835,Arkansas,AR,Logan,83,,,35.278,-93.3462,4
US,New Blaine,72851,Arkansas,AR,Logan,83,,,35.3189,-93.4446,4
US,Paris,72855,Arkansas,AR,Logan,83,,,35.2941,-93.7265,4
US,Scranton,72863,Arkansas,AR,Logan,83,,,35.3585,-93.5454,4
US,Subiaco,72865,Arkansas,AR,Logan,83,,,35.3153,-93.5991,4
US,Booneville,72927,Arkansas,AR,Logan,83,,,35.1364,-93.9274,4
US,Magazine,72943,Arkansas,AR,Logan,83,,,35.1587,-93.8003,4
US,Ratcliff,72951,Arkansas,AR,Logan,83,,,35.2917,-93.8899,4
US,Austin,72007,Arkansas,AR,Lonoke,85,,,34.9921,-91.9798,4
US,Cabot,72023,Arkansas,AR,Lonoke,85,,,34.9457,-92.0318,4
US,Carlisle,72024,Arkansas,AR,Lonoke,85,,,34.7933,-91.7459,4
US,Coy,72037,Arkansas,AR,Lonoke,85,,,34.5387,-91.874,4
US,England,72046,Arkansas,AR,Lonoke,85,,,34.5575,-91.9484,4
US,Humnoke,72072,Arkansas,AR,Lonoke,85,,,34.4857,-91.7624,4
US,Keo,72083,Arkansas,AR,Lonoke,85,,,34.6041,-92.0078,4
US,Lonoke,72086,Arkansas,AR,Lonoke,85,,,34.7832,-91.9214,4
US,Ward,72176,Arkansas,AR,Lonoke,85,,,34.9532,-91.9004,4
US,Combs,72721,Arkansas,AR,Madison,87,,,35.8607,-93.8112,4
US,Hindsville,72738,Arkansas,AR,Madison,87,,,36.1422,-93.8633,4
US,Huntsville,72740,Arkansas,AR,Madison,87,,,36.1043,-93.7279,4
US,Kingston,72742,Arkansas,AR,Madison,87,,,36.0485,-93.5044,4
US,Pettigrew,72752,Arkansas,AR,Madison,87,,,35.8346,-93.6181,4
US,Saint Paul,72760,Arkansas,AR,Madison,87,,,35.8496,-93.7347,4
US,Wesley,72773,Arkansas,AR,Madison,87,,,36.0114,-93.8526,4
US,Witter,72776,Arkansas,AR,Madison,87,,,35.9356,-93.621,4
US,Bull Shoals,72619,Arkansas,AR,Marion,89,,,36.371,-92.5938,4
US,Flippin,72634,Arkansas,AR,Marion,89,,,36.2682,-92.578,4
US,Oakland,72661,Arkansas,AR,Marion,89,,,36.4442,-92.5832,4
US,Peel,72668,Arkansas,AR,Marion,89,,,36.435,-92.7615,4
US,Pyatt,72672,Arkansas,AR,Marion,89,,,36.2486,-92.8416,4
US,Summit,72677,Arkansas,AR,Marion,89,,,36.2523,-92.6907,4
US,Yellville,72687,Arkansas,AR,Marion,89,,,36.2253,-92.7245,4
US,Doddridge,71834,Arkansas,AR,Miller,91,,,33.1054,-93.9543,4
US,Fouke,71837,Arkansas,AR,Miller,91,,,33.3025,-93.901,4
US,Genoa,71840,Arkansas,AR,Miller,91,,,33.3837,-93.9096,4
US,Texarkana,71854,Arkansas,AR,Miller,91,,,33.431,-93.8765,4
US,Armorel,72310,Arkansas,AR,Mississippi,93,,,35.9201,-89.7981,4
US,Bassett,72313,Arkansas,AR,Mississippi,93,,,35.5365,-90.1268,4
US,Blytheville,72315,Arkansas,AR,Mississippi,93,,,35.9273,-89.919,4
US,Blytheville,72316,Arkansas,AR,Mississippi,93,,,35.9273,-89.919,4
US,Gosnell,72319,Arkansas,AR,Mississippi,93,,,35.9598,-89.972,4
US,Burdette,72321,Arkansas,AR,Mississippi,93,,,35.8173,-89.9393,4
US,Driver,72329,Arkansas,AR,Mississippi,93,,,35.6253,-90.0138,4
US,Dyess,72330,Arkansas,AR,Mississippi,93,,,35.5954,-90.2157,4
US,Frenchmans Bayou,72338,Arkansas,AR,Mississippi,93,,,35.4591,-90.1884,4
US,Joiner,72350,Arkansas,AR,Mississippi,93,,,35.5052,-90.1478,4
US,Keiser,72351,Arkansas,AR,Mississippi,93,,,35.6737,-90.0963,4
US,Luxora,72358,Arkansas,AR,Mississippi,93,,,35.7608,-89.922,4
US,Osceola,72370,Arkansas,AR,Mississippi,93,,,35.7019,-89.9798,4
US,West Ridge,72391,Arkansas,AR,Mississippi,93,,,35.6831,-90.2626,4
US,Wilson,72395,Arkansas,AR,Mississippi,93,,,35.566,-90.0427,4
US,Dell,72426,Arkansas,AR,Mississippi,93,,,35.8554,-90.0418,4
US,Etowah,72428,Arkansas,AR,Mississippi,93,,,35.7337,-90.1838,4
US,Leachville,72438,Arkansas,AR,Mississippi,93,,,35.9332,-90.1955,4
US,Manila,72442,Arkansas,AR,Mississippi,93,,,35.8439,-90.1806,4
US,Brinkley,72021,Arkansas,AR,Monroe,95,,,34.8781,-91.1886,4
US,Clarendon,72029,Arkansas,AR,Monroe,95,,,34.6601,-91.2564,4
US,Holly Grove,72069,Arkansas,AR,Monroe,95,,,34.5993,-91.1844,4
US,Monroe,72108,Arkansas,AR,Monroe,95,,,34.7348,-91.1046,4
US,Roe,72134,Arkansas,AR,Monroe,95,,,34.6286,-91.3771,4
US,Caddo Gap,71935,Arkansas,AR,Montgomery,97,,,34.3913,-93.7637,4
US,Mount Ida,71957,Arkansas,AR,Montgomery,97,,,34.5612,-93.5749,4
US,Norman,71960,Arkansas,AR,Montgomery,97,,,34.4596,-93.6743,4
US,Oden,71961,Arkansas,AR,Montgomery,97,,,34.6113,-93.8211,4
US,Pencil Bluff,71965,Arkansas,AR,Montgomery,97,,,34.6399,-93.7429,4
US,Oden,71966,Arkansas,AR,Montgomery,97,,,34.619,-93.7769,4
US,Sims,71969,Arkansas,AR,Montgomery,97,,,34.6462,-93.6741,4
US,Story,71970,Arkansas,AR,Montgomery,97,,,34.6687,-93.5376,4
US,Bluff City,71722,Arkansas,AR,Nevada,99,,,33.7038,-93.1588,4
US,Cale,71828,Arkansas,AR,Nevada,99,,,33.7008,-93.2941,4
US,Emmet,71835,Arkansas,AR,Nevada,99,,,33.6929,-93.4232,4
US,Prescott,71857,Arkansas,AR,Nevada,99,,,33.804,-93.3725,4
US,Rosston,71858,Arkansas,AR,Nevada,99,,,33.5926,-93.2766,4
US,Willisville,71864,Arkansas,AR,Nevada,99,,,33.7008,-93.2941,4
US,Compton,72624,Arkansas,AR,Newton,101,,,36.0979,-93.3099,4
US,Deer,72628,Arkansas,AR,Newton,101,,,35.853,-93.3174,4
US,Hasty,72640,Arkansas,AR,Newton,101,,,36.0152,-93.046,4
US,Jasper,72641,Arkansas,AR,Newton,101,,,36.0038,-93.2048,4
US,Marble Falls,72648,Arkansas,AR,Newton,101,,,36.0695,-93.1566,4
US,Mount Judea,72655,Arkansas,AR,Newton,101,,,35.9407,-93.0654,4
US,Parthenon,72666,Arkansas,AR,Newton,101,,,35.9451,-93.2677,4
US,Ponca,72670,Arkansas,AR,Newton,101,,,36.0242,-93.3646,4
US,Vendor,72683,Arkansas,AR,Newton,101,,,35.9473,-93.0774,4
US,Western Grove,72685,Arkansas,AR,Newton,101,,,36.083,-92.9716,4
US,Camden,71701,Arkansas,AR,Ouachita,103,,,33.5948,-92.8513,4
US,Camden,71711,Arkansas,AR,Ouachita,103,,,33.589,-92.8426,4
US,Bearden,71720,Arkansas,AR,Ouachita,103,,,33.7298,-92.618,4
US,Chidester,71726,Arkansas,AR,Ouachita,103,,,33.6652,-92.9969,4
US,Louann,71751,Arkansas,AR,Ouachita,103,,,33.4169,-92.777,4
US,Stephens,71764,Arkansas,AR,Ouachita,103,,,33.455,-93.0214,4
US,Adona,72001,Arkansas,AR,Perry,105,,,35.047,-92.9033,4
US,Bigelow,72016,Arkansas,AR,Perry,105,,,34.9847,-92.6308,4
US,Casa,72025,Arkansas,AR,Perry,105,,,35.0322,-93.047,4
US,Houston,72070,Arkansas,AR,Perry,105,,,35.0362,-92.6913,4
US,Perry,72125,Arkansas,AR,Perry,105,,,35.0443,-92.7958,4
US,Perryville,72126,Arkansas,AR,Perry,105,,,34.9701,-92.8472,4
US,Barton,72312,Arkansas,AR,Phillips,107,,,34.5467,-90.7679,4
US,Crumrod,72328,Arkansas,AR,Phillips,107,,,34.1335,-90.9751,4
US,Elaine,72333,Arkansas,AR,Phillips,107,,,34.3118,-90.8939,4
US,Helena,72342,Arkansas,AR,Phillips,107,,,34.5325,-90.6298,4
US,Lambrook,72353,Arkansas,AR,Phillips,107,,,34.3286,-90.9652,4
US,Lexa,72355,Arkansas,AR,Phillips,107,,,34.5979,-90.7523,4
US,Marvell,72366,Arkansas,AR,Phillips,107,,,34.5485,-90.9413,4
US,Mellwood,72367,Arkansas,AR,Phillips,107,,,34.2198,-90.9504,4
US,Oneida,72369,Arkansas,AR,Phillips,107,,,34.4542,-90.7684,4
US,Poplar Grove,72374,Arkansas,AR,Phillips,107,,,34.5394,-90.8813,4
US,Turner,72383,Arkansas,AR,Phillips,107,,,34.4762,-91.0187,4
